[
 {
   "name_indo": "VIHARA TRIDHARMA BUMI RAYA",
   "name_hanzi": "山口洋中央伯公廟",
   "name_pinyin": "Shan Kou Yang Zhong Yang Bo Gong Miao",
   "neighbourhood": "PUSAT KOTA SINGKAWANG",
   "gps_lat": 0.9094444444444445,
   "gps_lon": 108.9888888888889,
   "address": "Jl. Sejahtera No.1, RT 48/06 Kelurahan Melayu",
   "ref_no": 1,
   "region": "west",
   "id": "w0"
 },
 {
   "name_indo": "VIHARA TRIDHARMA ADI MOKKHA",
   "name_hanzi": "華嶽宮/華光帝(華都街)",
   "name_pinyin": "Hua Yue Gong / Huang Guang Di",
   "neighbourhood": "JL. P. DIPONEGORO",
   "gps_lat": 0.9069444444444444,
   "gps_lon": 108.98666666666666,
   "address": "Jl. P. Diponegoro No.1, RT 02/01 Kelurahan Pasiran",
   "ref_no": 2,
   "region": "west",
   "id": "w1"
 },
 {
   "name_indo": "VIHARA TRIDHARMA KALAMA KWANTI",
   "name_hanzi": "協天官/關帝(華都街)",
   "name_pinyin": "Xie Tian Gong / Guan Di",
   "neighbourhood": "JL. P. DIPONEGORO",
   "gps_lat": 0.9072222222222223,
   "gps_lon": 108.9863888888889,
   "address": "Jl. P. Diponegoro No.1, RT 02/01 Kelurahan Pasiran",
   "ref_no": 3,
   "region": "west",
   "id": "w2"
 },
 {
   "name_indo": "CETIYA FA SAN THAI CIONG",
   "name_hanzi": "華山大将廟(吧西蘭)",
   "name_pinyin": "Hua Shan Da Jiang Miao",
   "neighbourhood": "JL. P. DIPONEGORO",
   "gps_lat": 0.9025,
   "gps_lon": 108.98111111111112,
   "address": "Jl. P. Diponegoro Gg. Tujuh Belas, RT 56/18 Kelurahan Pasiran",
   "ref_no": null,
   "region": "west",
   "id": "w3"
 },
 {
   "name_indo": "VIHARA DHARMA BUDDHA MAITREYA",
   "name_hanzi": "彌勒大道慧發佛堂",
   "name_pinyin": "Mi Le Da Dao Hui Fa Fo Tang",
   "neighbourhood": "JL. SM. TSJAFIOEDDIN",
   "gps_lat": 0.9083333333333333,
   "gps_lon": 108.98277777777778,
   "address": "Jl. SM. Tsjafioeddin No.32, RT 14/06 Kelurahan Melayu",
   "ref_no": null,
   "region": "west",
   "id": "w4"
 },
 {
   "name_indo": "CETIYA CHI SAN FAB JAN",
   "name_hanzi": "慈善法院",
   "name_pinyin": "Ci Shan Fa Yuan",
   "neighbourhood": "JL. SM. TSJAFIOEDDIN",
   "gps_lat": 0.9083333333333333,
   "gps_lon": 108.9825,
   "address": "Jl. SM. Tsjafioeddin, RT 14/06 Kelurahan Melayu",
   "ref_no": null,
   "region": "west",
   "id": "w5"
 },
 {
   "name_indo": "VIHARA TRI RATNA",
   "name_hanzi": "三尊雷藏寺(吧西蘭)",
   "name_pinyin": "San Zun Lei Cang Si",
   "neighbourhood": "JL. P. ANTASARI",
   "gps_lat": 0.9044444444444445,
   "gps_lon": 108.98138888888889,
   "address": "Jl. P. Antasari No.77A, Kel. Pasiran",
   "ref_no": 6,
   "region": "west",
   "id": "w6"
 },
 {
   "name_indo": "CETIYA PIT TET KIUNG",
   "name_hanzi": "必德宮(吧西蘭)",
   "name_pinyin": "Bi De Gong",
   "neighbourhood": "JL. P. ANTASARI",
   "gps_lat": 0.8997222222222222,
   "gps_lon": 108.97361111111111,
   "address": "Jl. Bukit Barisan, RT 41/15 Kelurahan Pasiran",
   "ref_no": null,
   "region": "west",
   "id": "w7"
 },
 {
   "name_indo": "CETIYA SAM CHIN MIAU",
   "name_hanzi": "三清廟(吧西蘭)",
   "name_pinyin": "Shan Qing Miao",
   "neighbourhood": "JL. P. ANTASARI",
   "gps_lat": 0.8966666666666666,
   "gps_lon": 108.97222222222223,
   "address": "Jl. Gunung Poteng, RT 35/16 Kelurahan Pasiran",
   "ref_no": null,
   "region": "west",
   "id": "w8"
 },
 {
   "name_indo": "CETIYA 18 LOHON",
   "name_hanzi": "十八羅漢(華都背)",
   "name_pinyin": "Shi Ba Luo Han (Hua Du Bei)",
   "neighbourhood": "JL. HERMANSYAH",
   "gps_lat": 0.9091666666666667,
   "gps_lon": 108.985,
   "address": "Jl. Hermansyah Gg. Ampera No.33C, RT 30/10 Kelurahan Melayu",
   "ref_no": null,
   "region": "west",
   "id": "w9"
 },
 {
   "name_indo": "VIHARA (BUDDHAYANA) METTA BHAWANA",
   "name_hanzi": "觀音堂/齋堂(華都背)",
   "name_pinyin": "Guan Yin Tang / Zhai Tang (Hua Du Bei)",
   "neighbourhood": "JL. HERMANSYAH",
   "gps_lat": 0.9133333333333333,
   "gps_lon": 108.9863888888889,
   "address": "Jl. Hermansyah No.25, RT 26/07 Kelurahan Melayu",
   "ref_no": null,
   "region": "west",
   "id": "w10"
 },
 {
   "name_indo": "VIHARA PARITTA PANDANA (SIN FO CAI THONG)",
   "name_hanzi": "瑑善宮(新和齋堂)",
   "name_pinyin": "Zhuan Shan Tang (Xin He Zhai Tang)",
   "neighbourhood": "JL. HERMANSYAH",
   "gps_lat": 0.9094444444444445,
   "gps_lon": 108.98361111111112,
   "address": "Jl. Dwi Tunggal, RT 33/09 Kelurahan Melayu",
   "ref_no": null,
   "region": "west",
   "id": "w11"
 },
 {
   "name_indo": "VIHARA VIMALA KIRTI",
   "name_hanzi": "尼西蓮庄休佛堂",
   "name_pinyin": "Ni Xi Lian Zhuang Xiu Fo Tang",
   "neighbourhood": "JL. PEMBANGUNAN",
   "gps_lat": 0.9144444444444445,
   "gps_lon": 108.96888888888888,
   "address": "Jl. Pembangunan No.17, RT 07/02 Kelurahan Melayu",
   "ref_no": null,
   "region": "west",
   "id": "w12"
 },
 {
   "name_indo": "CETIYA SAK CHI THAN",
   "name_hanzi": "石慈壇",
   "name_pinyin": "Shi Ci Tan",
   "neighbourhood": "JL. PARIT KETAPANG",
   "gps_lat": 0.9172222222222222,
   "gps_lon": 108.98555555555555,
   "address": "Jl. Parit Ketapang 2, RT 15/03 Kelurahan Melayu",
   "ref_no": 41,
   "region": "west",
   "id": "w13"
 },
 {
   "name_indo": "VIHARA TRIDHARMA BUMI RAYA THAI PAK KUNG",
   "name_hanzi": "大伯公(三條港)",
   "name_pinyin": "Da Bo Gong (San Tiao Gang)",
   "neighbourhood": "JL. ALIANYANG",
   "gps_lat": 0.8972222222222221,
   "gps_lon": 108.97111111111111,
   "address": "Jl. Alianyang No.46, RT 34/14 Kelurahan Pasiran",
   "ref_no": 13,
   "region": "west",
   "id": "w14"
 },
 {
   "name_indo": "YAYASAN DHARMA AVALOKITESVARA",
   "name_hanzi": "守孝公共佛堂",
   "name_pinyin": "Shou Xiao Gong Gong Fo Tang",
   "neighbourhood": "Jl. ALIANYANG",
   "gps_lat": 0.9108333333333334,
   "gps_lon": 108.97611111111111,
   "address": "Jl. Tani, RT 04/01 Kelurahan Kuala",
   "ref_no": null,
   "region": "west",
   "id": "w15"
 },
 {
   "name_indo": "VIHARA BUDHI MAKMUR",
   "name_hanzi": "興毅南興佛堂",
   "name_pinyin": "Xing Yi Nan Xing Fo Tang",
   "neighbourhood": "Jl. ALIANYANG",
   "gps_lat": 0.9061111111111111,
   "gps_lon": 108.9775,
   "address": "Jl. Alianyang No.7C, RT 43/06 Kelurahan Pasiran",
   "ref_no": null,
   "region": "west",
   "id": "w16"
 },
 {
   "name_indo": "VIHARA CUNG NYI THONG",
   "name_hanzi": "忠義堂",
   "name_pinyin": "Zhong Yi Tang",
   "neighbourhood": "Jl. ALIANYANG",
   "gps_lat": 0.9122222222222223,
   "gps_lon": 108.98194444444445,
   "address": "Jl. Alianyang Gg. Lestrari, RT 23/08 Kelurahan Melayu",
   "ref_no": null,
   "region": "west",
   "id": "w17"
 },
 {
   "name_indo": "CETIYA SHIN NUNG MIAU / NG KUK JA",
   "name_hanzi": "神農廟/五谷爷",
   "name_pinyin": "Shen Nong Miao / Wu Gu Ye",
   "neighbourhood": "JL. TANI",
   "gps_lat": 0.9072222222222223,
   "gps_lon": 108.9713888888889,
   "address": "Jl. Tani, RT 14/03 Kelurahan Pasiran",
   "ref_no": 40,
   "region": "west",
   "id": "w18"
 },
 {
   "name_indo": "VIHARA MAITREYA BAHTERA SUCI",
   "name_hanzi": "道岸佛堂",
   "name_pinyin": "Dao An Fo Tang",
   "neighbourhood": "JL. TANI",
   "gps_lat": 0.9141666666666667,
   "gps_lon": 108.97972222222222,
   "address": "Jl. Tani Gg. Restu No.39, RT 02/01 Kelurahan Kuala",
   "ref_no": null,
   "region": "west",
   "id": "w19"
 },
 {
   "name_indo": "CETIYA FA SAN THAI HEU",
   "name_hanzi": "華山大猴廟",
   "name_pinyin": "Hua Shan Da Hou Miao",
   "neighbourhood": "JL. TANI",
   "gps_lat": 0.9066666666666667,
   "gps_lon": 108.97083333333333,
   "address": "Jl. Tani 2, RT 14/03 Kelurahan Pasiran",
   "ref_no": null,
   "region": "west",
   "id": "w20"
 },
 {
   "name_indo": "CETIYA THAI PAK KUNG",
   "name_hanzi": "大伯公廟",
   "name_pinyin": "Da Bo Gong Miao",
   "neighbourhood": "JL. TANI",
   "gps_lat": 0.8958333333333333,
   "gps_lon": 108.96416666666667,
   "address": "Jl. Tani Gg. Padi, RT 34/15 Kelurahan Pasiran",
   "ref_no": null,
   "region": "west",
   "id": "w21"
 },
 {
   "name_indo": "CETIYA TRIDHARMA DEWI PADI / NG KUK PHO",
   "name_hanzi": "神農宮/五谷婆",
   "name_pinyin": "Shen Nong Gong / Wu Gu Po",
   "neighbourhood": "JL. TANI",
   "gps_lat": 0.9019444444444444,
   "gps_lon": 108.96972222222223,
   "address": "Jl. Tani Gg. Camar, RT 39/15 Kelurahan Pasiran",
   "ref_no": null,
   "region": "west",
   "id": "w22"
 },
 {
   "name_indo": "CETIYA TRIDHARMA CHI PO KIUNG",
   "name_hanzi": "慈保公",
   "name_pinyin": "Ci Bao Gong",
   "neighbourhood": "JL. TANI",
   "gps_lat": 0.9044444444444445,
   "gps_lon": 108.96833333333333,
   "address": "Jl. Tani Gg. Nuri, RT 39/15 Kelurahan Pasiran",
   "ref_no": null,
   "region": "west",
   "id": "w23"
 },
 {
   "name_indo": "CETIYA THIAN SAN KUNG KUNG",
   "name_hanzi": "天山公公廟",
   "name_pinyin": "Tian Shan Gong Gong Miao",
   "neighbourhood": "JL. TANI",
   "gps_lat": 0.9111111111111111,
   "gps_lon": 108.9738888888889,
   "address": "Jl. Tani Gg. Cimahi, RT 04/01 Kelurahan Kuala",
   "ref_no": null,
   "region": "west",
   "id": "w24"
 },
 {
   "name_indo": "CETIYA NAM HOI KON JIM NYIONG NYIONG",
   "name_hanzi": "南海觀音娘娘廟",
   "name_pinyin": "Nan Hai Guan Yin Niang Niang Miao",
   "neighbourhood": "JL. TANI",
   "gps_lat": 0.9111111111111111,
   "gps_lon": 108.97361111111111,
   "address": "Jl. Tani Gg. Cimahi, RT 04/01 Kelurahan Kuala",
   "ref_no": null,
   "region": "west",
   "id": "w25"
 },
 {
   "name_indo": "CETIYA SI THAI THIAN BONG",
   "name_hanzi": "四大天王廟",
   "name_pinyin": "Si Da Tian Wang Miao",
   "neighbourhood": "JL. TANI",
   "gps_lat": 0.9102777777777779,
   "gps_lon": 108.97638888888889,
   "address": "Jl. Tani Gg. Pekong, RT 04/01 Kelurahan Kuala",
   "ref_no": null,
   "region": "west",
   "id": "w26"
 },
 {
   "name_indo": "CETIYA KIM SAN PAK KUNG",
   "name_hanzi": "金山伯公廟",
   "name_pinyin": "Jin Shan Bo Gong Miao",
   "neighbourhood": "JL. TANI",
   "gps_lat": 0.9075,
   "gps_lon": 108.97638888888889,
   "address": "Jl. Tani Gg. Seksama, RT 04/01 Kelurahan Kuala",
   "ref_no": null,
   "region": "west",
   "id": "w27"
 },
 {
   "name_indo": "CETIYA KIM SAN MIAU",
   "name_hanzi": "金山廟",
   "name_pinyin": "Jin Shan Miao",
   "neighbourhood": "JL. KELAPA DUA",
   "gps_lat": 0.9127777777777778,
   "gps_lon": 108.97305555555556,
   "address": "Jl. Kelapa Dua, RT 04/01 Kelurahan Kuala",
   "ref_no": null,
   "region": "west",
   "id": "w28"
 },
 {
   "name_indo": "CETIYA FAB SHI MIAU",
   "name_hanzi": "法師廟",
   "name_pinyin": "Fa Shi Miao",
   "neighbourhood": "JL. KELAPA DUA",
   "gps_lat": 0.9113888888888889,
   "gps_lon": 108.97305555555556,
   "address": "Jl. Kelapa Dua, RT 13/03 Kelurahan Kuala",
   "ref_no": null,
   "region": "west",
   "id": "w29"
 },
 {
   "name_indo": "VIHARA TUNG SHIN KIUNG / THAI SHIN JA",
   "name_hanzi": "東聖官/大聖爺(蓮堂路)",
   "name_pinyin": "Dong Sheng Gong (Lian Tang Lu)",
   "neighbourhood": "JL. P. NATUNA",
   "gps_lat": 0.9022222222222223,
   "gps_lon": 108.98944444444444,
   "address": "Jl. P. Natuna No.131, RT 15/08 Kelurahan Pasiran",
   "ref_no": 5,
   "region": "west",
   "id": "w30"
 },
 {
   "name_indo": "VIHARA THO FAB KIUNG",
   "name_hanzi": "道法官(蓮堂路)",
   "name_pinyin": "Dao Fa Gong (Lian Tang Lu)",
   "neighbourhood": "JL. P. NATUNA",
   "gps_lat": 0.9025,
   "gps_lon": 108.99,
   "address": "Jl. P. Natuna No.22, RT 14/06 Kelurahan Pasiran",
   "ref_no": 35,
   "region": "west",
   "id": "w31"
 },
 {
   "name_indo": "VIHARA PAK SAN CHAU KIUNG",
   "name_hanzi": "伯山朝官(蓮堂路)",
   "name_pinyin": "Bo Shan Chao Gong (Lian Tang Lu)",
   "neighbourhood": "JL. P. NATUNA",
   "gps_lat": 0.9027777777777778,
   "gps_lon": 108.98916666666666,
   "address": "Jl. P. Natuna No.16, RT 14/06 Kelurahan Pasiran",
   "ref_no": null,
   "region": "west",
   "id": "w32"
 },
 {
   "name_indo": "CETIYA THAI CI MIAU",
   "name_hanzi": "太子廟(蓮堂路)",
   "name_pinyin": "Tai Zi Miao (Lian Tang Lu)",
   "neighbourhood": "JL. P. NATUNA",
   "gps_lat": 0.9027777777777778,
   "gps_lon": 108.98916666666666,
   "address": "Jl. P. Natuna, RT 14/06 Kelurahan Pasiran",
   "ref_no": null,
   "region": "west",
   "id": "w33"
 },
 {
   "name_indo": "CETIYA CI KO THAI BONG",
   "name_hanzi": "志高大王壇(蓮堂路)",
   "name_pinyin": "Zhi Gao Da Wang (Lian Tang Lu)",
   "neighbourhood": "JL. P. NATUNA",
   "gps_lat": 0.8988888888888888,
   "gps_lon": 108.9925,
   "address": "Jl. P. Natuna Gg. Bambu, RT 17/07 Kelurahan Pasiran",
   "ref_no": null,
   "region": "west",
   "id": "w34"
 },
 {
   "name_indo": "CETIYA TUNG SHIN MIAU",
   "name_hanzi": "東聖廟(蓮堂路)",
   "name_pinyin": "Dong Sheng Miao (Lian Tang Lu)",
   "neighbourhood": "JL. P. NATUNA",
   "gps_lat": 0.9008333333333334,
   "gps_lon": 108.99194444444444,
   "address": "Jl. P. Natuna Gg. Samudera, RT 17/07 Kelurahan Pasiran",
   "ref_no": null,
   "region": "west",
   "id": "w35"
 },
 {
   "name_indo": "VIHARA SAM CHIN MIAU / FAB ZHU KUNG",
   "name_hanzi": "三清廟/法主公(蓮堂路)",
   "name_pinyin": "San Qing Miao / Fa Zhu Gong (Lian Tang Lu)",
   "neighbourhood": "JL. P. NATUNA",
   "gps_lat": 0.9016666666666667,
   "gps_lon": 108.99166666666667,
   "address": "Jl. P. Natuna Gg. Sinar No.81, RT 14.06 Kelurahan Pasiran",
   "ref_no": 20,
   "region": "west",
   "id": "w36"
 },
 {
   "name_indo": "CETIYA KON JIM FUT MU",
   "name_hanzi": "觀音佛母壇(蓮堂路)",
   "name_pinyin": "Guan Yin Fo Mu Tan (Lian Tang Lu)",
   "neighbourhood": "JL. P. NATUNA",
   "gps_lat": 0.9061111111111111,
   "gps_lon": 108.99222222222222,
   "address": "Jl. Pasar Turi, RT 08/04 Kelurahan Pasiran",
   "ref_no": null,
   "region": "west",
   "id": "w37"
 },
 {
   "name_indo": "CETIYA SIAN KIUNG MIAU FAB",
   "name_hanzi": "仙宮妙法(井斗厰)",
   "name_pinyin": "Xian Gong Miao Fa (Jing Dou Chang)",
   "neighbourhood": "JL. P. NATUNA",
   "gps_lat": 0.8972222222222221,
   "gps_lon": 108.98861111111111,
   "address": "Jl. P. Natuna, RT 21/08 Kelurahan Pasiran",
   "ref_no": null,
   "region": "west",
   "id": "w38"
 },
 {
   "name_indo": "CETIYA CONG THIAN SHI",
   "name_hanzi": "張天師廟(公司山)",
   "name_pinyin": "Zhang Tian Shi Miao (Gong Si Shan)",
   "neighbourhood": "JL. P. NATUNA",
   "gps_lat": 0.9,
   "gps_lon": 108.99472222222222,
   "address": "Jl. P. Natuna Gg. Sukses, RT 16/06 Kelurahan Pasiran",
   "ref_no": 46,
   "region": "west",
   "id": "w39"
 },
 {
   "name_indo": "CETIYA FAB SHI MIAU",
   "name_hanzi": "法師廟(公司山)",
   "name_pinyin": "Fa Shi Miao (Gong Si Shan)",
   "neighbourhood": "JL. P. NATUNA",
   "gps_lat": 0.8997222222222222,
   "gps_lon": 108.99444444444444,
   "address": "Jl. P. Natuna Gg. Sukses, RT 16/06 Kelurahan Pasiran",
   "ref_no": null,
   "region": "west",
   "id": "w40"
 },
 {
   "name_indo": "VIHARA METTA KARUNA DHARMA SUCI",
   "name_hanzi": "法妙壇(公司山)",
   "name_pinyin": "Fa Miao Tan (Gong Si Shan)",
   "neighbourhood": "JL. P. NATUNA",
   "gps_lat": 0.9,
   "gps_lon": 108.99416666666667,
   "address": "Jl. P. Natuna Gg. Sukses, RT 16/06 Kelurahan Pasiran",
   "ref_no": null,
   "region": "west",
   "id": "w41"
 },
 {
   "name_indo": "CETIYA FO SAN FUT FAB CI KIUN THAN",
   "name_hanzi": "和善佛法濟君壇(公司山)",
   "name_pinyin": "He Shan Fo Fa Ji Jun Tan (Gong Si Shan)",
   "neighbourhood": "JL. P. NATUNA",
   "gps_lat": 0.9,
   "gps_lon": 108.9961111111111,
   "address": "Jl. P. Natuna, RT 16/06 Kelurahan Pasiran",
   "ref_no": 47,
   "region": "west",
   "id": "w42"
 },
 {
   "name_indo": "CETIYA THU THI PAK KUNG",
   "name_hanzi": "土地伯公壇(公司山)",
   "name_pinyin": "Tu Di Bo Gong Tan (Gong Si Shan)",
   "neighbourhood": "JL. P. NATUNA",
   "gps_lat": 0.8958333333333333,
   "gps_lon": 108.99361111111111,
   "address": "Jl. P. Natuna, RT 24/10 Kelurahan Pasiran",
   "ref_no": null,
   "region": "west",
   "id": "w43"
 },
 {
   "name_indo": "VIHARA LIAN THONG SHUI KHEU PAK KUNG",
   "name_hanzi": "水口伯公廟(芒桔頭)",
   "name_pinyin": "Shui Kou Bo Gong (Mang Jie Tou)",
   "neighbourhood": "KAMPUNG MANGGIS",
   "gps_lat": 0.8955555555555555,
   "gps_lon": 108.99583333333334,
   "address": "Jl. P. Natuna, RT 24/10 Kelurahan Pasiran",
   "ref_no": 18,
   "region": "west",
   "id": "w44"
 },
 {
   "name_indo": "CETIYA NG FU MIAU",
   "name_hanzi": "五虎廟(芒桔頭)",
   "name_pinyin": "Wu Hu Miao (Mang Jie Tou)",
   "neighbourhood": "KAMPUNG MANGGIS",
   "gps_lat": 0.8955555555555555,
   "gps_lon": 108.99583333333334,
   "address": "Jl. P. Natuna, RT 24/10 Kelurahan Pasiran",
   "ref_no": null,
   "region": "west",
   "id": "w45"
 },
 {
   "name_indo": "CETIYA SAM CHIN KIUNG",
   "name_hanzi": "三清宮(芒桔頭)",
   "name_pinyin": "Shan Qing Gong (Mang Jie Tou)",
   "neighbourhood": "KAMPUNG MANGGIS",
   "gps_lat": 0.8947222222222222,
   "gps_lon": 108.99527777777777,
   "address": "Jl. P. Natuna, RT 24/10 Kelurahan Pasiran",
   "ref_no": 19,
   "region": "west",
   "id": "w46"
 },
 {
   "name_indo": "CETIYA THAI PAK KUNG KUNG",
   "name_hanzi": "大伯公公廟(義務山)",
   "name_pinyin": "Da Bo Gong Gong Miao (Yi Wu Shan)",
   "neighbourhood": "KAWASAN PEMAKAMAN NYI BU SAN",
   "gps_lat": 0.8913888888888889,
   "gps_lon": 108.995,
   "address": "Jl. P. Natuna, RT 24/10 Kelurahan Pasiran",
   "ref_no": 32,
   "region": "west",
   "id": "w47"
 },
 {
   "name_indo": "CETIYA MU JAN PAK KONG",
   "name_hanzi": "墓園伯公庙(義務山)",
   "name_pinyin": "Mu Yuan Bo Gong Miao (Yi Wu Shan)",
   "neighbourhood": "KAWASAN PEMAKAMAN NYI BU SAN",
   "gps_lat": 0.8933333333333333,
   "gps_lon": 108.995,
   "address": "Jl. P. Natuna, RT 24/10 Kelurahan Pasiran",
   "ref_no": 31,
   "region": "west",
   "id": "w48"
 },
 {
   "name_indo": "VIHARA MU PUN THO THONG",
   "name_hanzi": "務本道堂(志師壇)",
   "name_pinyin": "Wu Ben Dao Tang (Zhi Shi Tan)",
   "neighbourhood": "JL. BURHANI",
   "gps_lat": 0.89,
   "gps_lon": 108.98833333333333,
   "address": "Jl. Kridasana Gg. 70 No.32, RT 26/10 Kelurahan Pasiran",
   "ref_no": null,
   "region": "west",
   "id": "w49"
 },
 {
   "name_indo": "CETIYA CHIP TET KIUNG",
   "name_hanzi": "集德宮(志師壇)",
   "name_pinyin": "Ji De Gong (Zhi Shi Tan)",
   "neighbourhood": "JL. BURHANI",
   "gps_lat": 0.8908333333333333,
   "gps_lon": 108.98944444444444,
   "address": "Jl. Kridasana Gg. Tujuh Puluh, RT 24/10 Kelurahan Pasiran",
   "ref_no": null,
   "region": "west",
   "id": "w50"
 },
 {
   "name_indo": "CETIYA SAM CHIN KIUNG",
   "name_hanzi": "三清宮(志師壇)",
   "name_pinyin": "Shan Qing Gong (Zhi Shi Tan)",
   "neighbourhood": "JL. BURHANI",
   "gps_lat": 0.8905555555555555,
   "gps_lon": 108.99222222222222,
   "address": "Jl. Kridasana Gg. Tujuh Puluh, RT 24/10 Kelurahan Pasiran",
   "ref_no": null,
   "region": "west",
   "id": "w51"
 },
 {
   "name_indo": "CETIYA THAI PAK KUNG",
   "name_hanzi": "大伯公廟(志師壇)",
   "name_pinyin": "Da Bo Gong Miao (Zhi Shi Tan)",
   "neighbourhood": "JL. BURHANI",
   "gps_lat": 0.8905555555555555,
   "gps_lon": 108.99222222222222,
   "address": "Jl. Kridasana Gg. Tujuh Puluh, RT 24/10 Kelurahan Pasiran",
   "ref_no": null,
   "region": "west",
   "id": "w52"
 },
 {
   "name_indo": "CETIYA LIUK LIUK KONG SEN",
   "name_hanzi": "六六罡星(志師壇)",
   "name_pinyin": "Liu Liu Gang Xing (Zhi Shi Tan)",
   "neighbourhood": "JL. BURHANI",
   "gps_lat": 0.8916666666666666,
   "gps_lon": 108.99361111111111,
   "address": "Jl. Kridasana Gg. Tujuh Puluh, RT 24/10 Kelurahan Pasiran",
   "ref_no": null,
   "region": "west",
   "id": "w53"
 },
 {
   "name_indo": "CETIYA SAM CHIN FAB THAN",
   "name_hanzi": "三清法壇(志師壇)",
   "name_pinyin": "Shan Qing Fa Tan (Zhi Shi Tan)",
   "neighbourhood": "JL. BURHANI",
   "gps_lat": 0.8911111111111111,
   "gps_lon": 108.99333333333334,
   "address": "Jl. Kridasana Gg. Tujuh Puluh, RT 24/10 Kelurahan Pasiran",
   "ref_no": null,
   "region": "west",
   "id": "w54"
 },
 {
   "name_indo": "VIHARA SAK CHI KIUNG",
   "name_hanzi": "石慈宮(運動場)",
   "name_pinyin": "Shi Ci Gong (Yun Dong Chang)",
   "neighbourhood": "JL. KRIDASANA",
   "gps_lat": 0.8869444444444444,
   "gps_lon": 108.98333333333333,
   "address": "Jl. Kridasana Gg. Karya II No.79, RT 28/11 Kelurahan Pasiran",
   "ref_no": null,
   "region": "west",
   "id": "w55"
 },
 {
   "name_indo": "CETIYA FUNG MIAN CIONG KIUN",
   "name_hanzi": "紅面將軍(運動場)",
   "name_pinyin": "Hong Mian Jiang Jun (Yun Dong Chang)",
   "neighbourhood": "JL. KRIDASANA",
   "gps_lat": 0.8933333333333333,
   "gps_lon": 108.98611111111111,
   "address": "Jl. Kridasana Gg. Karya I, RT 52/11 Kelurahan Pasiran",
   "ref_no": null,
   "region": "west",
   "id": "w56"
 },
 {
   "name_indo": "CETIYA FUT SHIN KIUNG",
   "name_hanzi": "佛神宮(運動場)",
   "name_pinyin": "Fo Shen Gong (Yun Dong Chang)",
   "neighbourhood": "JL. KRIDASANA",
   "gps_lat": 0.8936111111111111,
   "gps_lon": 108.98666666666666,
   "address": "Jl. Kridasana Gg. Karya I, RT 52/11 Kelurahan Pasiran",
   "ref_no": null,
   "region": "west",
   "id": "w57"
 },
 {
   "name_indo": "CETIYA FA SAN LI FAB THAN",
   "name_hanzi": "華山李法壇(運動場)",
   "name_pinyin": "Hua Shan Li Fa Tan (Yun Dong Chang)",
   "neighbourhood": "JL. KRIDASANA",
   "gps_lat": 0.8927777777777778,
   "gps_lon": 108.98555555555555,
   "address": "Jl. Kridasana Gg. Karya I, RT 52/11 Kelurahan Pasiran",
   "ref_no": null,
   "region": "west",
   "id": "w58"
 },
 {
   "name_indo": "VIHARA THAI PAK KUNG / BUN BU NYIAN SAI",
   "name_hanzi": "大伯公廟/文武元帥廟",
   "name_pinyin": "Da Bo Gong Miao / Wen Wu Yuan Shuai",
   "neighbourhood": "JL. KRIDASANA",
   "gps_lat": 0.8969444444444444,
   "gps_lon": 108.98777777777778,
   "address": "Jl. Kridasana Gg. Setuju, RT 22/09 Kelurahan Pasiran",
   "ref_no": 42,
   "region": "west",
   "id": "w59"
 },
 {
   "name_indo": "CETIYA FAB SHI THAN",
   "name_hanzi": "法師壇",
   "name_pinyin": "Fa Shi Tan",
   "neighbourhood": "JL. KRIDASANA",
   "gps_lat": 0.8969444444444444,
   "gps_lon": 108.98722222222223,
   "address": "Jl. Kridasana Gg. Makasar, RT 20/09 Kelurahan Pasiran",
   "ref_no": null,
   "region": "west",
   "id": "w60"
 },
 {
   "name_indo": "VIHARA TRIDHARMA PAK KUNG PAK PHO",
   "name_hanzi": "大伯公廟(三叉路)",
   "name_pinyin": "Da Bo Gong Miao (San Cha Lu)",
   "neighbourhood": "JL. KRIDASANA",
   "gps_lat": 0.895,
   "gps_lon": 108.98333333333333,
   "address": "Jl. Pelita Gg. Lembah I No.32, RT 27/11 Kelurahan Pasiran",
   "ref_no": 39,
   "region": "west",
   "id": "w61"
 },
 {
   "name_indo": "VIHARA DHARMA BUDDHA DHAMMA SAVANA",
   "name_hanzi": "晋恩佛堂(三叉路)",
   "name_pinyin": "Jin En Fo Tang (San Cha Lu)",
   "neighbourhood": "JL. YOHANA GODANG",
   "gps_lat": 0.8983333333333333,
   "gps_lon": 108.98444444444445,
   "address": "Jl. Yohana Godang No.57, RT 48/17 Kelurahan Pasiran",
   "ref_no": null,
   "region": "west",
   "id": "w62"
 },
 {
   "name_indo": "CETIYA LUI THIAN CU SHI",
   "name_hanzi": "老祖天師廟(三叉路)",
   "name_pinyin": "Lao Zu Tian Shi Miao (San Cha Lu)",
   "neighbourhood": "JL. STASIUN",
   "gps_lat": 0.9027777777777778,
   "gps_lon": 108.98805555555556,
   "address": "Jl. Stasiun, RT 04/02 Kelurahan Pasiran",
   "ref_no": 34,
   "region": "west",
   "id": "w63"
 },
 {
   "name_indo": "VIHARA TRIDHARMA BUMI RAYA",
   "name_hanzi": "港尾大伯公廟(港尾)",
   "name_pinyin": "Gang Wei Da Bo Gong (Gang Wei)",
   "neighbourhood": "PASAR TURI",
   "gps_lat": 0.9052777777777778,
   "gps_lon": 108.99277777777777,
   "address": "Jl. Pasar Turi No.21, RT 12/04 Kelurahan Pasiran",
   "ref_no": 4,
   "region": "west",
   "id": "w64"
 },
 {
   "name_indo": "CETIYA THAI PAK KUNG KUNG",
   "name_hanzi": "大伯公公廟(港尾肚)",
   "name_pinyin": "Da Bo Gong Gong Miao (Gang Wei Du)",
   "neighbourhood": "PASAR TURI DALAM",
   "gps_lat": 0.9016666666666667,
   "gps_lon": 108.99694444444445,
   "address": "Jl. Pasar Turi Dalam, RT 18/07 Kelurahan Pasiran",
   "ref_no": null,
   "region": "west",
   "id": "w65"
 },
 {
   "name_indo": "CETIYA THAI PAK KUNG / SE PAK KUNG",
   "name_hanzi": "大伯公壇(小伯公)",
   "name_pinyin": "Da Bo Gong Tan",
   "neighbourhood": "Jl. SAMA-SAMA",
   "gps_lat": 0.9055555555555556,
   "gps_lon": 108.99083333333333,
   "address": "Jl. Sama-sama, RT 09/05 Kelurahan Pasiran",
   "ref_no": 17,
   "region": "west",
   "id": "w66"
 },
 {
   "name_indo": "CETIYA NYIAN SAI THONG",
   "name_hanzi": "元帥堂",
   "name_pinyin": "Yuan Shuai Tang",
   "neighbourhood": "Jl. SAMA-SAMA 2",
   "gps_lat": 0.905,
   "gps_lon": 108.99111111111111,
   "address": "Jl. Sama-sama 2 No.76, RT 09/04 Kelurahan Pasiran",
   "ref_no": null,
   "region": "west",
   "id": "w67"
 },
 {
   "name_indo": "VIHARA TRIDHARMA BUMI RAYA DEWI SAMUDERA",
   "name_hanzi": "天后宮/天后聖母",
   "name_pinyin": "Tian Hou Gong / Tian Hou Sheng Mu",
   "neighbourhood": "JL. SAMAN BUJANG",
   "gps_lat": 0.9066666666666667,
   "gps_lon": 108.98722222222223,
   "address": "Jl. Saman Bujang No.29, RT 11/03 Kelurahan Pasiran",
   "ref_no": 12,
   "region": "west",
   "id": "w68"
 },
 {
   "name_indo": "VIHARA TRIDHARMA BUDI DHARMA",
   "name_hanzi": "觀音宮",
   "name_pinyin": "Guan Yin Gong",
   "neighbourhood": "JL. GM. SITUT",
   "gps_lat": 0.905,
   "gps_lon": 108.98972222222223,
   "address": "Jl. GM. Situt, RT 07/02 Kelurahan Pasiran",
   "ref_no": null,
   "region": "west",
   "id": "w69"
 },
 {
   "name_indo": "VIHARA HIAN THIAN SONG TI",
   "name_hanzi": "玄天上帝廟",
   "name_pinyin": "Xian Tian Shang Di Miao",
   "neighbourhood": "JL. GM. SITUT",
   "gps_lat": 0.9030555555555556,
   "gps_lon": 108.98833333333333,
   "address": "Jl. GM. Situt, RT 04/02 Kelurahan Pasiran",
   "ref_no": 33,
   "region": "west",
   "id": "w70"
 },
 {
   "name_indo": "VIHARA SHI THIAN FUT CU",
   "name_hanzi": "西天佛祖廟",
   "name_pinyin": "Xi Tian Fo Zu Miao",
   "neighbourhood": "GUNUNG SARI",
   "gps_lat": 0.8897222222222222,
   "gps_lon": 108.97694444444444,
   "address": "Jl. Gunung Sari Gg. Puncak sari, RT 30/12 Kelurahan Pasiran",
   "ref_no": 11,
   "region": "west",
   "id": "w71"
 },
 {
   "name_indo": "CETIYA SAK KU THAI BONG",
   "name_hanzi": "石古大王壇",
   "name_pinyin": "Shi Gu Da Wang Tan",
   "neighbourhood": "GUNUNG SARI",
   "gps_lat": 0.8925,
   "gps_lon": 108.97944444444444,
   "address": "Jl. Gunung Bawang, RT 30/12 Kelurahan Pasiran",
   "ref_no": null,
   "region": "west",
   "id": "w72"
 },
 {
   "name_indo": "CETIYA THAI PAK KUNG KUNG",
   "name_hanzi": "大伯公壇",
   "name_pinyin": "Da Bo Gong Tan",
   "neighbourhood": "GUNUNG SARI",
   "gps_lat": 0.8866666666666666,
   "gps_lon": 108.98111111111112,
   "address": "Jl. Taman Gunung Sari, RT 28/11 Kelurahan Pasiran",
   "ref_no": null,
   "region": "west",
   "id": "w73"
 },
 {
   "name_indo": "CETIYA KON JIM KIUNG",
   "name_hanzi": "觀音官(石角)",
   "name_pinyin": "Guan Yin Gong (Shi Jiao)",
   "neighbourhood": "JL. A. YANI / SAKKOK",
   "gps_lat": 0.8916666666666666,
   "gps_lon": 108.96527777777779,
   "address": "Jl. A. Yani No.24, RT 33/14 Kelurahan Pasiran",
   "ref_no": 15,
   "region": "west",
   "id": "w74"
 },
 {
   "name_indo": "CETIYA THAI PAK KUNG",
   "name_hanzi": "大伯公壇(盧萬新路)",
   "name_pinyin": "Da Bo Gong Tan (Lu Wan Xin Lu)",
   "neighbourhood": "JALAN BARU-ROBAN",
   "gps_lat": 0.8922222222222221,
   "gps_lon": 109.0125,
   "address": "Jl. Baru, RT 44/09 Kelurahan Roban",
   "ref_no": null,
   "region": "central",
   "id": "c0"
 },
 {
   "name_indo": "VIHARA TRIDHARMA TERATAI",
   "name_hanzi": "三教堂(盧萬新路)",
   "name_pinyin": "San Jiao Tang (Lu Wan Xin Lu)",
   "neighbourhood": "JALAN BARU-ROBAN",
   "gps_lat": 0.8886111111111111,
   "gps_lon": 109.00583333333333,
   "address": "Jl. Gunung Roban / Jl. Baru, RT 57/12 Kelurahan Roban",
   "ref_no": null,
   "region": "central",
   "id": "c1"
 },
 {
   "name_indo": "VIHARA PET TI KIUNG / THAI PAK KUNG",
   "name_hanzi": "北帝宮-大伯公(盧萬新路)",
   "name_pinyin": "Bei Di Gong / Da Bo Gong (Lu Wan Xin Lu)",
   "neighbourhood": "JALAN BARU-ROBAN",
   "gps_lat": 0.8902777777777777,
   "gps_lon": 109.0025,
   "address": "Jl. Gunung Roban / Jl. Baru, RT 57/12 Kelurahan Roban",
   "ref_no": null,
   "region": "central",
   "id": "c2"
 },
 {
   "name_indo": "VIHARA TRIDHARMA UTAMA / THAI PAK KUNG",
   "name_hanzi": "大伯公廟(盧萬打麻房)",
   "name_pinyin": "Da Bo Gong Miao (Lu Wan Da Ma Fang)",
   "neighbourhood": "GUDANG TAMA-ROBAN",
   "gps_lat": 0.9002777777777778,
   "gps_lon": 109.01194444444444,
   "address": "Jl. Gudang Tama No.20, RT 29/08 Kelurahan Roban",
   "ref_no": null,
   "region": "central",
   "id": "c3"
 },
 {
   "name_indo": "CETIYA LO CU THIAN SHI",
   "name_hanzi": "老祖天師壇(盧萬打麻房)",
   "name_pinyin": "Lao Zu Tian Shi Tan (Lu Wan Da Ma Fang)",
   "neighbourhood": "GUDANG TAMA-ROBAN",
   "gps_lat": 0.9005555555555556,
   "gps_lon": 109.01444444444445,
   "address": "Jl. Gudang Tama Gg. Bufa, RT 18/03 Kelurahan Roban",
   "ref_no": null,
   "region": "central",
   "id": "c4"
 },
 {
   "name_indo": "CETIYA KON JIM KIUNG",
   "name_hanzi": "觀音官(盧萬)",
   "name_pinyin": "Guan Yin Gong (Lu Wan)",
   "neighbourhood": "ROBAN",
   "gps_lat": 0.8902777777777777,
   "gps_lon": 109.01583333333333,
   "address": "Jl. Pahlawan, RT 44/09 Kelurahan Roban",
   "ref_no": 16,
   "region": "central",
   "id": "c5"
 },
 {
   "name_indo": "CETIYA THAI PAK KUNG",
   "name_hanzi": "大伯公廟(盧萬)",
   "name_pinyin": "Da Bo Gong Miao (Lu Wan)",
   "neighbourhood": "ROBAN",
   "gps_lat": 0.8944444444444444,
   "gps_lon": 109.01722222222222,
   "address": "Jl. Pahlawan Gg. Bukit Burung, RT 44/09 Kelurahan Roban",
   "ref_no": null,
   "region": "central",
   "id": "c6"
 },
 {
   "name_indo": "CETIYA SI THAI KIM KONG",
   "name_hanzi": "四大金剛(盧萬)",
   "name_pinyin": "Si Da Jin Gang (Lu Wan)",
   "neighbourhood": "ROBAN",
   "gps_lat": 0.895,
   "gps_lon": 109.0125,
   "address": "Jl. Pahlawan, RT 26/09 Kelurahan Roban",
   "ref_no": null,
   "region": "central",
   "id": "c7"
 },
 {
   "name_indo": "VIHARA SAM CHIN FAB JAN",
   "name_hanzi": "三清法院(盧萬)",
   "name_pinyin": "San Qing Fa Yuan (Lu Wan)",
   "neighbourhood": "ROBAN",
   "gps_lat": 0.8952777777777777,
   "gps_lon": 109.01,
   "address": "Jl. Pahlawan Gg. Sinar Karya, RT 26/09 Kelurahan Roban",
   "ref_no": null,
   "region": "central",
   "id": "c8"
 },
 {
   "name_indo": "CETIYA SHI THIAN FUT CU",
   "name_hanzi": "西天佛祖壇(盧萬)",
   "name_pinyin": "Xi Tian Fo Zu Tan (Lu Wan)",
   "neighbourhood": "ROBAN",
   "gps_lat": 0.8952777777777777,
   "gps_lon": 109.01166666666667,
   "address": "Jl. Pahlawan Gg. Sinar Karya, RT 26/09 Kelurahan Roban",
   "ref_no": null,
   "region": "central",
   "id": "c9"
 },
 {
   "name_indo": "VIHARA PANNA / THIAN THAI FO THANG",
   "name_hanzi": "天泰佛堂(盧萬)",
   "name_pinyin": "Tian Tai Fo Tang (Lu Wan)",
   "neighbourhood": "ROBAN",
   "gps_lat": 0.9044444444444445,
   "gps_lon": 109.0025,
   "address": "Jl. KS. Tubun No.28, RT 20/09 Kelurahan Roban",
   "ref_no": null,
   "region": "central",
   "id": "c10"
 },
 {
   "name_indo": "CETIYA LIE KHUI KIUNG",
   "name_hanzi": "李逵宮(盧萬)",
   "name_pinyin": "Li Kui Gong (Lu Wan)",
   "neighbourhood": "ROBAN",
   "gps_lat": 0.8994444444444444,
   "gps_lon": 109.00222222222222,
   "address": "Jl. KS. Tubun Gg.AA, RT 53/11 Kelurahan Roban",
   "ref_no": null,
   "region": "central",
   "id": "c11"
 },
 {
   "name_indo": "CETIYA KIM SAN PAK KUNG",
   "name_hanzi": "僅山伯公(盧萬)",
   "name_pinyin": "Jin Shan Bo Gong (Lu Wan)",
   "neighbourhood": "ROBAN",
   "gps_lat": 0.8994444444444444,
   "gps_lon": 109.00083333333333,
   "address": "Jl. KS. Tubun Gg. Pekong, RT 54/12 Kelurahan Roban",
   "ref_no": null,
   "region": "central",
   "id": "c12"
 },
 {
   "name_indo": "CETIYA NYIUK TI / KON JIN MIAU",
   "name_hanzi": "玉帝/觀音廟(盧萬)",
   "name_pinyin": "Yu Di / Guan Yin Miao (Lu Wan)",
   "neighbourhood": "ROBAN",
   "gps_lat": 0.8997222222222222,
   "gps_lon": 109.0025,
   "address": "Jl. KS. Tubun, RT 53/11 Kelurahan Roban",
   "ref_no": null,
   "region": "central",
   "id": "c13"
 },
 {
   "name_indo": "VIHARA CIN LI FUT THONG",
   "name_hanzi": "晉礼佛堂(盧萬)",
   "name_pinyin": "Jin Li Fo Tang (Lu Wan)",
   "neighbourhood": "ROBAN",
   "gps_lat": 0.8983333333333333,
   "gps_lon": 109.00277777777778,
   "address": "Jl. KS. Tubun, RT 52/11 Kelurahan Roban",
   "ref_no": null,
   "region": "central",
   "id": "c14"
 },
 {
   "name_indo": "CETIYA KUNG KUNG",
   "name_hanzi": "公公壇(盧萬)",
   "name_pinyin": "Gong Gong Tan (Lu Wan)",
   "neighbourhood": "ROBAN",
   "gps_lat": 0.8958333333333333,
   "gps_lon": 109.00333333333333,
   "address": "Jl. KS. Tubun, RT 57/12 Kelurahan Roban",
   "ref_no": null,
   "region": "central",
   "id": "c15"
 },
 {
   "name_indo": "VIHARA LO MAO SUI KHEU PAK KUNG",
   "name_hanzi": "羅卯水口伯公(盧萬)",
   "name_pinyin": "Luo Mao Shui Kou Bo Gong (Lu Wan)",
   "neighbourhood": "ROBAN",
   "gps_lat": 0.8941666666666667,
   "gps_lon": 109.00333333333333,
   "address": "Jl. KS. Tubun, RT 57/12 Kelurahan Roban",
   "ref_no": null,
   "region": "central",
   "id": "c16"
 },
 {
   "name_indo": "VIHARA BUDDHAYANA MAHA KARUNA (ATAS)",
   "name_hanzi": "玉皇殿/觀音堂/北帝堂(盧萬)",
   "name_pinyin": "Yu Huang Dian / Guan Yin Tang / Bei Di Tang",
   "neighbourhood": "ROBAN (上齋堂-Shang Zhai Tang)",
   "gps_lat": 0.8938888888888888,
   "gps_lon": 109.00333333333333,
   "address": "Jl. KS. Tubun, RT 57/12 Kelurahan Roban",
   "ref_no": 50,
   "region": "central",
   "id": "c17"
 },
 {
   "name_indo": "VIHARA BUDDHAYANA MAHA KARUNA (BAWAH)",
   "name_hanzi": "觀音堂(盧萬)",
   "name_pinyin": "Guan Yin Tang (Lu Wan)",
   "neighbourhood": "ROBAN (下齋堂-Xia Zhai Tang)",
   "gps_lat": 0.8930555555555555,
   "gps_lon": 109.00416666666666,
   "address": "Jl. KS. Tubun, RT 57/12 Kelurahan Roban",
   "ref_no": 51,
   "region": "central",
   "id": "c18"
 },
 {
   "name_indo": "CETIYA KON JIM FUT MU",
   "name_hanzi": "觀音佛母壇(黄泥路)",
   "name_pinyin": "Guan Yin Fo Mu Tan (Huang Ni Lu)",
   "neighbourhood": "JL. KALIMANTAN",
   "gps_lat": 0.9080555555555556,
   "gps_lon": 108.99638888888889,
   "address": "Jl. Kalimantan Gg. Lima, RT 09/03 Kelurahan Roban",
   "ref_no": null,
   "region": "central",
   "id": "c19"
 },
 {
   "name_indo": "CETIYA FUT HOI THONG",
   "name_hanzi": "佛海堂(黄泥路)",
   "name_pinyin": "Fo Hai Tang (Huang Ni Lu)",
   "neighbourhood": "JL. KALIMANTAN",
   "gps_lat": 0.9075,
   "gps_lon": 108.995,
   "address": "Jl. Kalimantan Gg. P4, RT 08/03 Kelurahan Roban",
   "ref_no": null,
   "region": "central",
   "id": "c20"
 },
 {
   "name_indo": "CETIYA SIAM LO FAB THAN",
   "name_hanzi": "暹邏法壇(黄泥路)",
   "name_pinyin": "Xian Luo Fa Tan (Huang Ni Lu)",
   "neighbourhood": "JL. KALIMANTAN",
   "gps_lat": 0.9080555555555556,
   "gps_lon": 108.99388888888889,
   "address": "Jl. Kalimantan Gg. Tiga, RT 33/07 Kelurahan Condong",
   "ref_no": null,
   "region": "central",
   "id": "c21"
 },
 {
   "name_indo": "CETIYA THAI PAK KUNG KUNG",
   "name_hanzi": "大伯公公壇(黄泥路)",
   "name_pinyin": "Da Bo Gong Gong Tan (Huang Ni Lu)",
   "neighbourhood": "JL. KALIMANTAN",
   "gps_lat": 0.9072222222222223,
   "gps_lon": 108.99305555555556,
   "address": "Jl. Kalimantan Gg. Tiga, RT 33/07 Kelurahan Condong",
   "ref_no": 48,
   "region": "central",
   "id": "c22"
 },
 {
   "name_indo": "VIHARA JIU TET FUT THONG",
   "name_hanzi": "有德佛堂(黄泥路)",
   "name_pinyin": "You De Fo Tang (Huang Ni Lu)",
   "neighbourhood": "JL. KALIMANTAN",
   "gps_lat": 0.9088888888888889,
   "gps_lon": 108.99388888888889,
   "address": "Jl. Kalimantan, RT 36/07 Kelurahan Condong",
   "ref_no": null,
   "region": "central",
   "id": "c23"
 },
 {
   "name_indo": "VIHARA FONG THAI NYIAN SAI / CHOI LAM SHIN",
   "name_hanzi": "方大元帥廟/菜籃神(黄泥路)",
   "name_pinyin": "Fang Da Yuan Shuai Miao / Cai Lan Shen",
   "neighbourhood": "JL. KALIMANTAN",
   "gps_lat": 0.9091666666666667,
   "gps_lon": 108.99277777777777,
   "address": "Jl. Kalimantan Gg. Satu, RT 32/07 Kelurahan Condong",
   "ref_no": null,
   "region": "central",
   "id": "c24"
 },
 {
   "name_indo": "KELENTENG THAI PAK KUNG KUNG",
   "name_hanzi": "大伯公公廟(黄泥路)",
   "name_pinyin": "Da Bai Gong Gong Miao (Huang Ni Lu)",
   "neighbourhood": "JL. HULU / JL. KALIMANTAN",
   "gps_lat": 0.9083333333333333,
   "gps_lon": 108.99305555555556,
   "address": "Jl. Hulu, RT 33/07 Kelurahan Condong",
   "ref_no": 49,
   "region": "central",
   "id": "c25"
 },
 {
   "name_indo": "CETIYA BUN KIUNG FAB",
   "name_hanzi": "文宮法壇(港尾)",
   "name_pinyin": "Wen Gong Fa Tan (Gang Wei)",
   "neighbourhood": "JL. HULU",
   "gps_lat": 0.9083333333333333,
   "gps_lon": 108.9925,
   "address": "Jl. Hulu, RT 32/07 Kelurahan Condong",
   "ref_no": null,
   "region": "central",
   "id": "c26"
 },
 {
   "name_indo": "VIHARA GITA TRIRATNA",
   "name_hanzi": "接善堂/齋堂(港尾)",
   "name_pinyin": "Jie Shan Tang / Zhai Tang (Gang Wei)",
   "neighbourhood": "JL. HULU",
   "gps_lat": 0.9077777777777778,
   "gps_lon": 108.99305555555556,
   "address": "Jl. Hulu, RT 33/07 Kelurahan Condong",
   "ref_no": null,
   "region": "central",
   "id": "c27"
 },
 {
   "name_indo": "CETIYA CHAU LIU LIN THAN",
   "name_hanzi": "趙劉靈壇",
   "name_pinyin": "Zhao Liu Ling Tan",
   "neighbourhood": "JL. BUDI UTOMO",
   "gps_lat": 0.9091666666666667,
   "gps_lon": 108.98972222222223,
   "address": "Jl. Budi Utomo No.8A, RT 23/05 Kelurahan Condong",
   "ref_no": null,
   "region": "central",
   "id": "c28"
 },
 {
   "name_indo": "ALTAR KELUARGA TJHIA",
   "name_hanzi": "謝恊勝祖屋壇",
   "name_pinyin": "Xie Xie Sheng Zu Wu Tan",
   "neighbourhood": "KAWASAN TRADISIONAL",
   "gps_lat": 0.9102777777777779,
   "gps_lon": 108.99,
   "address": "Jl. Budi Utomo, RT 23/05 Kelurahan Condong",
   "ref_no": null,
   "region": "central",
   "id": "c29"
 },
 {
   "name_indo": "YAYASAN DHARMA SUCI MULIA",
   "name_hanzi": "五福真君廟",
   "name_pinyin": "Wu Fu Zhen Jun Miao",
   "neighbourhood": "JL. PEMUDA",
   "gps_lat": 0.9108333333333334,
   "gps_lon": 108.99055555555556,
   "address": "Jl. Pemuda Gg. Tabrani H. Ahmad, RT 22/05 Kelurahan Condong",
   "ref_no": null,
   "region": "central",
   "id": "c30"
 },
 {
   "name_indo": "CETIYA CHO FUK KIUNG",
   "name_hanzi": "坐福宮",
   "name_pinyin": "Zuo Fu Gong",
   "neighbourhood": "JL. PEMUDA",
   "gps_lat": 0.9102777777777779,
   "gps_lon": 108.99083333333333,
   "address": "Jl. Pemuda Gg. Tabrani H. Ahmad, RT 22/05 Kelurahan Condong",
   "ref_no": null,
   "region": "central",
   "id": "c31"
 },
 {
   "name_indo": "CETIYA LIM PAK KUNG",
   "name_hanzi": "林伯公壇(海望)",
   "name_pinyin": "Lin Bo Gong Tan (Hai Wang)",
   "neighbourhood": "MUARA KUALA",
   "gps_lat": 0.9202777777777778,
   "gps_lon": 108.96583333333334,
   "address": "Kawasan Terminal Induk, RT 14/05 Kelurahan Sei. Wie",
   "ref_no": null,
   "region": "central",
   "id": "c32"
 },
 {
   "name_indo": "VIHARA NAM TEU SEN KIUN",
   "name_hanzi": "南斗星君廟(頭條港)",
   "name_pinyin": "Nan Dou Xing Jun Miao (Tou Tiao Gang)",
   "neighbourhood": "SEI. WIE",
   "gps_lat": 0.923611111111111,
   "gps_lon": 108.98916666666666,
   "address": "Jl. Tani Gg. Setia Negara, RT 03/01 Kelurahan Sei. Wie",
   "ref_no": null,
   "region": "central",
   "id": "c33"
 },
 {
   "name_indo": "CETIYA SAM THAI THIAN BONG",
   "name_hanzi": "三大天王壇(頭條港)",
   "name_pinyin": "San Da Tian Wang Tan (Tou Tiao Gang)",
   "neighbourhood": "SEI. WIE",
   "gps_lat": 0.9225,
   "gps_lon": 108.98972222222223,
   "address": "Jl. Cempaka, RT 03/01 Kelurahan Sei. Wie",
   "ref_no": null,
   "region": "central",
   "id": "c34"
 },
 {
   "name_indo": "CETIYA THAI PAK KUNG KUNG",
   "name_hanzi": "大伯公公壇(頭條港)",
   "name_pinyin": "Da Bo Gong Gong Tan (Tou Tiao Gang)",
   "neighbourhood": "SEI. WIE",
   "gps_lat": 0.9263888888888888,
   "gps_lon": 108.99111111111111,
   "address": "Jl. Cempaka, RT 03/01 Kelurahan Sei. Wie",
   "ref_no": null,
   "region": "central",
   "id": "c35"
 },
 {
   "name_indo": "VIHARA SAM CHIN MIAU / FAB ZHU KUNG",
   "name_hanzi": "三清庙/法主公(莲堂路)",
   "name_pinyin": "San Qing Miao / Fa Zhu Gong (Lian Tang Lu)",
   "neighbourhood": "JL. P. NATUNA",
   "gps_lat": 0.9016666666666667,
   "gps_lon": 108.99166666666667,
   "address": "Jl. P. Natuna Gg. Sinar No.81, RT 14.06 Kelurahan Pasiran",
   "ref_no": null,
   "region": "central",
   "id": "c36"
 },
 {
   "name_indo": "CETIYA KON JIM FUT MU",
   "name_hanzi": "观音佛母坛(莲堂路)",
   "name_pinyin": "Guan Yin Fo Mu Tan (Lian Tang Lu)",
   "neighbourhood": "JL. P. NATUNA",
   "gps_lat": 0.9061111111111111,
   "gps_lon": 108.99222222222222,
   "address": "Jl. Pasar Turi, RT 08/04 Kelurahan Pasiran",
   "ref_no": null,
   "region": "central",
   "id": "c37"
 },
 {
   "name_indo": "CETIYA SIAN KIUNG MIAU FAB",
   "name_hanzi": "仙宮妙法(井斗厂)",
   "name_pinyin": "Xian Gong Miao Fa (Jing Dou Chang)",
   "neighbourhood": "JL. P. NATUNA",
   "gps_lat": 0.8972222222222221,
   "gps_lon": 108.98861111111111,
   "address": "Jl. P. Natuna, RT 21/08 Kelurahan Pasiran",
   "ref_no": null,
   "region": "central",
   "id": "c38"
 },
 {
   "name_indo": "CETIYA CONG THIAN SHI",
   "name_hanzi": "張天师庙(公司山)",
   "name_pinyin": "Zhang Tian Shi Miao (Gong Si Shan)",
   "neighbourhood": "JL. P. NATUNA",
   "gps_lat": 0.9,
   "gps_lon": 108.99472222222222,
   "address": "Jl. P. Natuna Gg. Sukses, RT 16/06 Kelurahan Pasiran",
   "ref_no": null,
   "region": "central",
   "id": "c39"
 },
 {
   "name_indo": "CETIYA FAB SHI MIAU",
   "name_hanzi": "法师庙(公司山)",
   "name_pinyin": "Fa Shi Miao (Gong Si Shan)",
   "neighbourhood": "JL. P. NATUNA",
   "gps_lat": 0.8997222222222222,
   "gps_lon": 108.99444444444444,
   "address": "Jl. P. Natuna Gg. Sukses, RT 16/06 Kelurahan Pasiran",
   "ref_no": null,
   "region": "central",
   "id": "c40"
 },
 {
   "name_indo": "VIHARA METTA KARUNA DHARMA SUCI",
   "name_hanzi": "法妙坛(公司山)",
   "name_pinyin": "Fa Miao Tan (Gong Si Shan)",
   "neighbourhood": "JL. P. NATUNA",
   "gps_lat": 0.9,
   "gps_lon": 108.99416666666667,
   "address": "Jl. P. Natuna Gg. Sukses, RT 16/06 Kelurahan Pasiran",
   "ref_no": null,
   "region": "central",
   "id": "c41"
 },
 {
   "name_indo": "CETIYA HO SAN FUT FAB KI KIUN THONG",
   "name_hanzi": "和善佛法济君坛(公司山)",
   "name_pinyin": "He Shan Fo Fa Ji Jun Tan (Gong Si Shan)",
   "neighbourhood": "JL. P. NATUNA",
   "gps_lat": 0.9,
   "gps_lon": 108.9961111111111,
   "address": "Jl. P. Natuna, RT 16/06 Kelurahan Pasiran",
   "ref_no": null,
   "region": "central",
   "id": "c42"
 },
 {
   "name_indo": "CETIYA THU THI PAK KUNG",
   "name_hanzi": "土地伯公坛(公司山)",
   "name_pinyin": "Tu Di Bo Gong Tan (Gong Si Shan)",
   "neighbourhood": "JL. P. NATUNA",
   "gps_lat": 0.8958333333333333,
   "gps_lon": 108.99361111111111,
   "address": "Jl. P. Natuna, RT 24/10 Kelurahan Pasiran",
   "ref_no": null,
   "region": "central",
   "id": "c43"
 },
 {
   "name_indo": "VIHARA LIAN THONG SHUI KHEU PAK KUNG",
   "name_hanzi": "水口伯公庙(芒桔头)",
   "name_pinyin": "Shui Kou Bo Gong (Mang Jie Tou)",
   "neighbourhood": "KAMPUNG MANGGIS",
   "gps_lat": 0.8955555555555555,
   "gps_lon": 108.99583333333334,
   "address": "Jl. P. Natuna, RT 24/10 Kelurahan Pasiran",
   "ref_no": null,
   "region": "central",
   "id": "c44"
 },
 {
   "name_indo": "CETIYA NG FU MIAU",
   "name_hanzi": "五虎庙(芒桔头)",
   "name_pinyin": "Wu Hu Miao (Mang Jie Tou)",
   "neighbourhood": "KAMPUNG MANGGIS",
   "gps_lat": 0.8955555555555555,
   "gps_lon": 108.99583333333334,
   "address": "Jl. P. Natuna, RT 24/10 Kelurahan Pasiran",
   "ref_no": null,
   "region": "central",
   "id": "c45"
 },
 {
   "name_indo": "CETIYA SAM CHIN KIUNG",
   "name_hanzi": "三清宮(芒桔头)",
   "name_pinyin": "Shan Qing Gong (Mang Jie Tou)",
   "neighbourhood": "KAMPUNG MANGGIS",
   "gps_lat": 0.8947222222222222,
   "gps_lon": 108.99527777777777,
   "address": "Jl. P. Natuna, RT 24/10 Kelurahan Pasiran",
   "ref_no": null,
   "region": "central",
   "id": "c46"
 },
 {
   "name_indo": "CETIYA THAI PAK KUNG KUNG",
   "name_hanzi": "大伯公公庙",
   "name_pinyin": "Da Bo Gong Gong Miao",
   "neighbourhood": "KAWASAN PEMAKAMAN NYI BU SAN",
   "gps_lat": 0.8913888888888889,
   "gps_lon": 108.995,
   "address": "Jl. P. Natuna, RT 24/10 Kelurahan Pasiran",
   "ref_no": null,
   "region": "central",
   "id": "c47"
 },
 {
   "name_indo": "CETIYA MU JAN PAK KONG",
   "name_hanzi": "墓园伯公庙",
   "name_pinyin": "Mu Yuan Bo Gong Miao",
   "neighbourhood": "KAWASAN PEMAKAMAN NYI BU SAN",
   "gps_lat": 0.8933333333333333,
   "gps_lon": 108.995,
   "address": "Jl. P. Natuna, RT 24/10 Kelurahan Pasiran",
   "ref_no": null,
   "region": "central",
   "id": "c48"
 },
 {
   "name_indo": "VIHARA MU PUN THO THONG",
   "name_hanzi": "务本道堂(志师坛)",
   "name_pinyin": "Mu Ben Dao Tang (Zhi Shi Tan)",
   "neighbourhood": "JL. BURHANI",
   "gps_lat": 0.89,
   "gps_lon": 108.98833333333333,
   "address": "Jl. Kridasana Gg. 70 No.32, RT 26/10 Kelurahan Pasiran",
   "ref_no": null,
   "region": "central",
   "id": "c49"
 },
 {
   "name_indo": "CETIYA CHIP TET KIUNG",
   "name_hanzi": "集德宮(志师坛)",
   "name_pinyin": "Ji De Gong (Zhi Shi Tan)",
   "neighbourhood": "JL. BURHANI",
   "gps_lat": 0.8908333333333333,
   "gps_lon": 108.98944444444444,
   "address": "Jl. Kridasana Gg. Tujuh Puluh, RT 24/10 Kelurahan Pasiran",
   "ref_no": null,
   "region": "central",
   "id": "c50"
 },
 {
   "name_indo": "CETIYA SAM CHIN KIUNG",
   "name_hanzi": "三清宮(志师坛)",
   "name_pinyin": "Shan Qing Gong (Zhi Shi Tan)",
   "neighbourhood": "JL. BURHANI",
   "gps_lat": 0.8905555555555555,
   "gps_lon": 108.99222222222222,
   "address": "Jl. Kridasana Gg. Tujuh Puluh, RT 24/10 Kelurahan Pasiran",
   "ref_no": null,
   "region": "central",
   "id": "c51"
 },
 {
   "name_indo": "CETIYA THAI PAK KUNG",
   "name_hanzi": "大伯公庙(志师坛)",
   "name_pinyin": "Da Bo Gong Miao (Zhi Shi Tan)",
   "neighbourhood": "JL. BURHANI",
   "gps_lat": 0.8905555555555555,
   "gps_lon": 108.99222222222222,
   "address": "Jl. Kridasana Gg. Tujuh Puluh, RT 24/10 Kelurahan Pasiran",
   "ref_no": null,
   "region": "central",
   "id": "c52"
 },
 {
   "name_indo": "CETIYA LIUK LIUK KONG SEN",
   "name_hanzi": "六六罡星(志师坛)",
   "name_pinyin": "Liu Liu Gang Xing (Zhi Shi Tan)",
   "neighbourhood": "JL. BURHANI",
   "gps_lat": 0.8916666666666666,
   "gps_lon": 108.99361111111111,
   "address": "Jl. Kridasana Gg. Tujuh Puluh, RT 24/10 Kelurahan Pasiran",
   "ref_no": null,
   "region": "central",
   "id": "c53"
 },
 {
   "name_indo": "CETIYA SAM CHIN FAB THAN",
   "name_hanzi": "三清法坛(志师坛)",
   "name_pinyin": "Shan Qing Fa Tan (Zhi Shi Tan)",
   "neighbourhood": "JL. BURHANI",
   "gps_lat": 0.8911111111111111,
   "gps_lon": 108.99333333333334,
   "address": "Jl. Kridasana Gg. Tujuh Puluh, RT 24/10 Kelurahan Pasiran",
   "ref_no": null,
   "region": "central",
   "id": "c54"
 },
 {
   "name_indo": "VIHARA SAK CHI KIUNG",
   "name_hanzi": "石慈官(运动场)",
   "name_pinyin": "Shi Ci Gong (Yun Dong Chang)",
   "neighbourhood": "JL. KRIDASANA",
   "gps_lat": 0.8869444444444444,
   "gps_lon": 108.98333333333333,
   "address": "Jl. Kridasana Gg. Karya II No.79, RT 28/11 Kelurahan Pasiran",
   "ref_no": null,
   "region": "central",
   "id": "c55"
 },
 {
   "name_indo": "CETIYA FUNG MIAN CIONG KIUN",
   "name_hanzi": "紅面將军(运动场)",
   "name_pinyin": "Hong Mian Jiang Jun (Yun Dong Chang)",
   "neighbourhood": "JL. KRIDASANA",
   "gps_lat": 0.8933333333333333,
   "gps_lon": 108.98611111111111,
   "address": "Jl. Kridasana Gg. Karya I, RT 52/11 Kelurahan Pasiran",
   "ref_no": null,
   "region": "central",
   "id": "c56"
 },
 {
   "name_indo": "CETIYA FUT SHIN KIUNG",
   "name_hanzi": "佛神宮(运动场)",
   "name_pinyin": "Fo Shen Gong (Yun Dong Chang)",
   "neighbourhood": "JL. KRIDASANA",
   "gps_lat": 0.8936111111111111,
   "gps_lon": 108.98666666666666,
   "address": "Jl. Kridasana Gg. Karya I, RT 52/11 Kelurahan Pasiran",
   "ref_no": null,
   "region": "central",
   "id": "c57"
 },
 {
   "name_indo": "CETIYA FA SAN LI FAB THAN",
   "name_hanzi": "华山李法坛(运动场)",
   "name_pinyin": "Hua Shan Li Fa Tan (Yun Dong Chang)",
   "neighbourhood": "JL. KRIDASANA",
   "gps_lat": 0.8927777777777778,
   "gps_lon": 108.98555555555555,
   "address": "Jl. Kridasana Gg. Karya I, RT 52/11 Kelurahan Pasiran",
   "ref_no": null,
   "region": "central",
   "id": "c58"
 },
 {
   "name_indo": "VIHARA THAI PAK KUNG / BUN BU NYIAN SAI",
   "name_hanzi": "大伯公庙/文武元帅庙",
   "name_pinyin": "Da Bo Gong Miao / Wen Wu Yuan Shuai",
   "neighbourhood": "JL. KRIDASANA",
   "gps_lat": 0.8969444444444444,
   "gps_lon": 108.98777777777778,
   "address": "Jl. Kridasana Gg. Setuju, RT 22/09 Kelurahan Pasiran",
   "ref_no": null,
   "region": "central",
   "id": "c59"
 },
 {
   "name_indo": "CETIYA FAB SHI THAN",
   "name_hanzi": "法师坛",
   "name_pinyin": "Fa Shi Tan",
   "neighbourhood": "JL. KRIDASANA",
   "gps_lat": 0.8969444444444444,
   "gps_lon": 108.98722222222223,
   "address": "Jl. Kridasana Gg. Makasar, RT 20/09 Kelurahan Pasiran",
   "ref_no": null,
   "region": "central",
   "id": "c60"
 },
 {
   "name_indo": "VIHARA TRIDHARMA PAK KUNG PAK PHO",
   "name_hanzi": "大伯公庙(三叉路)",
   "name_pinyin": "Da Bo Gong Miao (San Cha Lu)",
   "neighbourhood": "JL. KRIDASANA",
   "gps_lat": 0.895,
   "gps_lon": 108.98333333333333,
   "address": "Jl. Pelita Gg. Lembah I No.32, RT 27/11 Kelurahan Pasiran",
   "ref_no": null,
   "region": "central",
   "id": "c61"
 },
 {
   "name_indo": "VIHARA DHARMA BUDDHA DHAMMA SAVANA",
   "name_hanzi": "晋恩佛堂(三叉路)",
   "name_pinyin": "Jin En Fo Tang (San Cha Lu)",
   "neighbourhood": "JL. YOHANA GODANG",
   "gps_lat": 0.8983333333333333,
   "gps_lon": 108.98444444444445,
   "address": "Jl. Yohana Godang No.57, RT 48/17 Kelurahan Pasiran",
   "ref_no": null,
   "region": "central",
   "id": "c62"
 },
 {
   "name_indo": "CETIYA LUI THIAN CU SHI",
   "name_hanzi": "雷天祖师庙(三叉路)",
   "name_pinyin": "Lei Thian Zu Shi Miao (San Cha Lu)",
   "neighbourhood": "JL. STASIUN",
   "gps_lat": 0.9027777777777778,
   "gps_lon": 108.98805555555556,
   "address": "Jl. Stasiun, RT 04/02 Kelurahan Pasiran",
   "ref_no": null,
   "region": "central",
   "id": "c63"
 },
 {
   "name_indo": "VIHARA TRIDHARMA BUMI RAYA",
   "name_hanzi": "港尾大伯公庙(港尾)",
   "name_pinyin": "Gang Wei Da Bo Gong (Gang Wei)",
   "neighbourhood": "PASAR TURI",
   "gps_lat": 0.9052777777777778,
   "gps_lon": 108.99277777777777,
   "address": "Jl. Pasar Turi No.21, RT 12/04 Kelurahan Pasiran",
   "ref_no": null,
   "region": "central",
   "id": "c64"
 },
 {
   "name_indo": "CETIYA THAI PAK KUNG KUNG",
   "name_hanzi": "大伯公公庙(港尾肚)",
   "name_pinyin": "Da Bo Gong Gong Miao (Gang Wei Du)",
   "neighbourhood": "PASAR TURI DALAM",
   "gps_lat": 0.9016666666666667,
   "gps_lon": 108.99694444444445,
   "address": "Jl. Pasar Turi Dalam, RT 18/07 Kelurahan Pasiran",
   "ref_no": null,
   "region": "central",
   "id": "c65"
 },
 {
   "name_indo": "CETIYA THAI PAK KUNG",
   "name_hanzi": "大伯公坛",
   "name_pinyin": "Da Bo Gong Tan",
   "neighbourhood": "Jl. SAMA-SAMA",
   "gps_lat": 0.9055555555555556,
   "gps_lon": 108.99083333333333,
   "address": "Jl. Sama-sama, RT 09/05 Kelurahan Pasiran",
   "ref_no": null,
   "region": "central",
   "id": "c66"
 },
 {
   "name_indo": "CETIYA NYIAN SAI THONG",
   "name_hanzi": "元帅堂",
   "name_pinyin": "Yuan Shuai Tang",
   "neighbourhood": "Jl. SAMA-SAMA 2",
   "gps_lat": 0.905,
   "gps_lon": 108.99111111111111,
   "address": "Jl. Sama-sama 2 No.76, RT 09/04 Kelurahan Pasiran",
   "ref_no": null,
   "region": "central",
   "id": "c67"
 },
 {
   "name_indo": "VIHARA TRIDHARMA BUMI RAYA DEWI SAMUDERA",
   "name_hanzi": "天后宫/天后圣母",
   "name_pinyin": "Tian Hou Gong / Tian Hou Sheng Mu",
   "neighbourhood": "JL. SAMAN BUJANG",
   "gps_lat": 0.9066666666666667,
   "gps_lon": 108.98722222222223,
   "address": "Jl. Saman Bujang No.29, RT 11/03 Kelurahan Pasiran",
   "ref_no": null,
   "region": "central",
   "id": "c68"
 },
 {
   "name_indo": "VIHARA TRIDHARMA BUDI DHARMA",
   "name_hanzi": "观音官",
   "name_pinyin": "Guan Yin Gong",
   "neighbourhood": "JL. GM. SITUT",
   "gps_lat": 0.905,
   "gps_lon": 108.98972222222223,
   "address": "Jl. GM. Situt, RT 07/02 Kelurahan Pasiran",
   "ref_no": null,
   "region": "central",
   "id": "c69"
 },
 {
   "name_indo": "VIHARA HIAN THIAN SONG TI",
   "name_hanzi": "玄天上帝庙",
   "name_pinyin": "Xian Tian Shang Di Miao",
   "neighbourhood": "JL. GM. SITUT",
   "gps_lat": 0.9030555555555556,
   "gps_lon": 108.98833333333333,
   "address": "Jl. GM. Situt, RT 04/02 Kelurahan Pasiran",
   "ref_no": null,
   "region": "central",
   "id": "c70"
 },
 {
   "name_indo": "VIHARA SHI THIAN FUT CU",
   "name_hanzi": "西天佛祖庙",
   "name_pinyin": "Xi Tian Fo Zu Miao",
   "neighbourhood": "GUNUNG SARI",
   "gps_lat": 0.8897222222222222,
   "gps_lon": 108.97694444444444,
   "address": "Jl. Gunung Sari Gg. Puncak sari, RT 30/12 Kelurahan Pasiran",
   "ref_no": null,
   "region": "central",
   "id": "c71"
 },
 {
   "name_indo": "CETIYA SAK KU THAI BONG",
   "name_hanzi": "石古大王坛",
   "name_pinyin": "Shi Gu Da Wang Tan",
   "neighbourhood": "GUNUNG SARI",
   "gps_lat": 0.8925,
   "gps_lon": 108.97944444444444,
   "address": "Jl. Gunung Bawang, RT 30/12 Kelurahan Pasiran",
   "ref_no": null,
   "region": "central",
   "id": "c72"
 },
 {
   "name_indo": "CETIYA THAI PAK KUNG KUNG",
   "name_hanzi": "大伯公坛",
   "name_pinyin": "Da Bo Gong Tan",
   "neighbourhood": "GUNUNG SARI",
   "gps_lat": 0.8866666666666666,
   "gps_lon": 108.98111111111112,
   "address": "Jl. Taman Gunung Sari, RT 28/11 Kelurahan Pasiran",
   "ref_no": null,
   "region": "central",
   "id": "c73"
 },
 {
   "name_indo": "CETIYA KON JIM KIUNG",
   "name_hanzi": "观音官(石角)",
   "name_pinyin": "Guan Yin Gong (Shi Jiao)",
   "neighbourhood": "JL. A. YANI / SAKKOK",
   "gps_lat": 0.8916666666666666,
   "gps_lon": 108.96527777777779,
   "address": "Jl. A. Yani No.24, RT 33/14 Kelurahan Pasiran",
   "ref_no": null,
   "region": "central",
   "id": "c74"
 },
 {
   "name_indo": "CETIYA FAB SHI KUNG KUNG",
   "name_hanzi": "法師公公壇(長沙吧)",
   "name_pinyin": "Fa Shi Gong Gong Tan (Zhang Sha Ba)",
   "neighbourhood": "PASIR PANJANG",
   "gps_lat": 0.8502777777777778,
   "gps_lon": 108.88694444444445,
   "address": "Jl. Pasir Panjang Pak Lotay, RT 64/10 Kelurahan Sedau",
   "ref_no": null,
   "region": "south",
   "id": "s0"
 },
 {
   "name_indo": "CETIYA FUK SHIN BONG KIUNG",
   "name_hanzi": "福聖王宮(锅麻港)",
   "name_pinyin": "Fu Sheng Wang Gong (Guo Ma Gang)",
   "neighbourhood": "BOKMAKONG - PASIR PANJANG",
   "gps_lat": 0.8352777777777778,
   "gps_lon": 108.89777777777779,
   "address": "Jl. Raya Pasir Panjang (Bokmakong), RT 65/10 Kelurahan Sedau",
   "ref_no": null,
   "region": "south",
   "id": "s1"
 },
 {
   "name_indo": "VIHARA SHIN TET KIUNG",
   "name_hanzi": "聖德宮(禮朗)",
   "name_pinyin": "Sheng De Gong (Li Lang)",
   "neighbourhood": "GUNUNG BESI - LIRANG",
   "gps_lat": 0.8402777777777778,
   "gps_lon": 108.91527777777779,
   "address": "Jl. Lirang Proyek, RT 49/08 Kelurahan Sedau",
   "ref_no": null,
   "region": "south",
   "id": "s2"
 },
 {
   "name_indo": "VIHARA DHARMA BUDDHA MAITREYA",
   "name_hanzi": "彌勒大道仁中佛堂(禮朗)",
   "name_pinyin": "Mi Le Da Dao Ren Zhong Fo Tang (Li Lang)",
   "neighbourhood": "GUNUNG BESI - LIRANG",
   "gps_lat": 0.8380555555555556,
   "gps_lon": 108.91722222222222,
   "address": "Jl. Lirang Proyek, RT 50/08 Kelurahan Sedau",
   "ref_no": null,
   "region": "south",
   "id": "s3"
 },
 {
   "name_indo": "VIHARA FUK BONG KIUNG",
   "name_hanzi": "福王宮(禮朗)",
   "name_pinyin": "Fu Wang Gong (Li Lang)",
   "neighbourhood": "GUNUNG BESI - LIRANG",
   "gps_lat": 0.7702777777777778,
   "gps_lon": 108.905,
   "address": "Jl. Lirang Proyek, RT 53/08 Kelurahan Sedau",
   "ref_no": null,
   "region": "south",
   "id": "s4"
 },
 {
   "name_indo": "VIHARA FUT FAB KIUNG",
   "name_hanzi": "佛法宮(禮朗)",
   "name_pinyin": "Fo Fa Gong (Li Lang)",
   "neighbourhood": "GUNUNG BESI - LIRANG",
   "gps_lat": 0.8400000000000001,
   "gps_lon": 108.91805555555555,
   "address": "Jl. Pendidikan (Lirang Proyek), RT 50/08 Kelurahan Sedau",
   "ref_no": null,
   "region": "south",
   "id": "s5"
 },
 {
   "name_indo": "VIHARA FAB CHIN MIAU",
   "name_hanzi": "法清廟(礼朗)",
   "name_pinyin": "Fa Qing Miao (Li Lang)",
   "neighbourhood": "GUNUNG BESI (LIRANG)",
   "gps_lat": 0.8477777777777779,
   "gps_lon": 108.91972222222223,
   "address": "Jl. Gunung Besi Raya, RT 48/08 Kelurahan Sedau",
   "ref_no": null,
   "region": "south",
   "id": "s6"
 },
 {
   "name_indo": "VIHARA FUK TET KIUNG / KON THIAN PAK KUNG",
   "name_hanzi": "福德宮/官田伯公(禮朗)",
   "name_pinyin": "Fu De Gong / Guan Tian Bo Gong (Li Lang)",
   "neighbourhood": "GUNUNG BESI - LIRANG",
   "gps_lat": 0.8530555555555556,
   "gps_lon": 108.9238888888889,
   "address": "Jl. Telkom Gunung Besi, RT 47/08 Kelurahan Sedau",
   "ref_no": 38,
   "region": "south",
   "id": "s7"
 },
 {
   "name_indo": "CETIYA SAK CIONG KIUN",
   "name_hanzi": "石将宮(禮朗)",
   "name_pinyin": "Shi Jiang Gong (Li Lang)",
   "neighbourhood": "GUNUNG BESI - LIRANG",
   "gps_lat": 0.8497222222222223,
   "gps_lon": 108.92361111111111,
   "address": "Jl. Telkom Gunung Besi, RT 47/08 Kelurahan Sedau",
   "ref_no": null,
   "region": "south",
   "id": "s8"
 },
 {
   "name_indo": "VIHARA HONG DE",
   "name_hanzi": "宏德佛堂(禮朗)",
   "name_pinyin": "Hong De Fo Tang (Li Lang)",
   "neighbourhood": "GUNUNG BESI - LIRANG",
   "gps_lat": 0.8533333333333333,
   "gps_lon": 108.92611111111111,
   "address": "Jl. Sejahtera No.55, RT 46/08 Kelurahan Sedau",
   "ref_no": null,
   "region": "south",
   "id": "s9"
 },
 {
   "name_indo": "CETIYA THO FAB SIU LIN",
   "name_hanzi": "道法授靈壇(亜答港)",
   "name_pinyin": "Dao Fa Shou Ling Tan (Ya Da Gang)",
   "neighbourhood": "SEDAU",
   "gps_lat": 0.861111111111111,
   "gps_lon": 108.90444444444445,
   "address": "Jl. Malindo Teluk Karang Gg. PDAM, RT 39/07 Kelurahan Sedau",
   "ref_no": null,
   "region": "south",
   "id": "s10"
 },
 {
   "name_indo": "CETIYA LIN SAN KIUNG THONG",
   "name_hanzi": "靈山宮堂(亜答港)",
   "name_pinyin": "Ling Shan Gong Tang (Ya Da Gang)",
   "neighbourhood": "SEDAU",
   "gps_lat": 0.86,
   "gps_lon": 108.9038888888889,
   "address": "Jl. Malindo Teluk Karang Gg. PDAM, RT 39/07 Kelurahan Sedau",
   "ref_no": null,
   "region": "south",
   "id": "s11"
 },
 {
   "name_indo": "VIHARA PET TI KIUNG",
   "name_hanzi": "北帝宮(亜答港)",
   "name_pinyin": "Bei Di Gong (Ya Da Gang)",
   "neighbourhood": "SEDAU",
   "gps_lat": 0.8641666666666666,
   "gps_lon": 108.92694444444444,
   "address": "Jl. Malindo Teluk Karang, RT 40/07 Kelurahan Sedau",
   "ref_no": 36,
   "region": "south",
   "id": "s12"
 },
 {
   "name_indo": "VIHARA SAM CHIN FAB JAN",
   "name_hanzi": "三清法院(亜答港)",
   "name_pinyin": "San Qing Fa Yuan (Ya Da Gang)",
   "neighbourhood": "SEDAU",
   "gps_lat": 0.8694444444444445,
   "gps_lon": 108.92611111111111,
   "address": "Jl. Malindo Teluk Karang No.01, RT 41/07 Kelurahan Sedau",
   "ref_no": 37,
   "region": "south",
   "id": "s13"
 },
 {
   "name_indo": "VIHARA KON JIM MIAU",
   "name_hanzi": "觀音廟(亜答港)",
   "name_pinyin": "Guan Yin Miao (Ya Da Gang)",
   "neighbourhood": "SEDAU",
   "gps_lat": 0.8569444444444444,
   "gps_lon": 108.91777777777779,
   "address": "Jl. Malindo Teluk Karang (Dalam), RT 40/07 Kelurahan Sedau",
   "ref_no": null,
   "region": "south",
   "id": "s14"
 },
 {
   "name_indo": "VIHARA TRIDHARMA BUMI RAYA",
   "name_hanzi": "大伯公廟(亜答港)",
   "name_pinyin": "Da Bo Gong Miao (Ya Da Gang)",
   "neighbourhood": "SEDAU",
   "gps_lat": 0.8658333333333333,
   "gps_lon": 108.92861111111111,
   "address": "Jl. Raya Pasar Sedau, RT 36/06 Kelurahan Sedau",
   "ref_no": 26,
   "region": "south",
   "id": "s15"
 },
 {
   "name_indo": "VIHARA SAM SHIN KIUNG",
   "name_hanzi": "三聖宮(亜答港)",
   "name_pinyin": "San Sheng Gong (Ya Da Gang)",
   "neighbourhood": "SEDAU",
   "gps_lat": 0.8652777777777777,
   "gps_lon": 108.92888888888889,
   "address": "Jl. Raya Pasar Sedau, RT 36/06 Kelurahan Sedau",
   "ref_no": 25,
   "region": "south",
   "id": "s16"
 },
 {
   "name_indo": "VIHARA TRIDHARMA BUMI RAYA",
   "name_hanzi": "石狮大伯公廟(鹽町)",
   "name_pinyin": "Shi Shi Da Bo Gong Miao (Yan Ting)",
   "neighbourhood": "JALAN RAYA SEDAU",
   "gps_lat": 0.8702777777777778,
   "gps_lon": 108.93611111111112,
   "address": "Jl. Raya Sedau, RT 30/06 Kelurahan Sedau",
   "ref_no": 10,
   "region": "south",
   "id": "s17"
 },
 {
   "name_indo": "VIHARA THAI PAK KUNG KUNG",
   "name_hanzi": "大伯公公(鹽町)",
   "name_pinyin": "Da Bo Gong Gong (Yan Ting)",
   "neighbourhood": "KALIASIN LUAR",
   "gps_lat": 0.8711111111111112,
   "gps_lon": 108.94250000000001,
   "address": "Jl. Pasar Kaliasin, RT 23/04 Kelurahan Sedau",
   "ref_no": null,
   "region": "south",
   "id": "s18"
 },
 {
   "name_indo": "VIHARA KON TI KIUNG",
   "name_hanzi": "關帝宮(鹽町)",
   "name_pinyin": "Guan Di Gong (Yan Ting)",
   "neighbourhood": "KALIASIN",
   "gps_lat": 0.8708333333333333,
   "gps_lon": 108.94166666666668,
   "address": "Jl. Kaliasin Dalam, RT 29/05 Kelurahan Sedau",
   "ref_no": null,
   "region": "south",
   "id": "s19"
 },
 {
   "name_indo": "CETIYA CHIANG FA THAI CI MIAU",
   "name_hanzi": "青华太子廟(鹽町肚)",
   "name_pinyin": "Qing Hua Tai Zi Miao (Yan Ting Du)",
   "neighbourhood": "KALIASIN DALAM",
   "gps_lat": 0.86,
   "gps_lon": 108.94333333333334,
   "address": "Jl. Kaliasin Dalam Gg. Naca, RT 02/01 Kelurahan Sedau",
   "ref_no": null,
   "region": "south",
   "id": "s20"
 },
 {
   "name_indo": "VIHARA THAI PAK KUNG",
   "name_hanzi": "大伯公廟(鹽町肚)",
   "name_pinyin": "Da Bo Gong Miao (Yan Ting Du)",
   "neighbourhood": "KALIASIN DALAM",
   "gps_lat": 0.861111111111111,
   "gps_lon": 108.94472222222223,
   "address": "Jl. Kaliasin Dalam, RT 25/05 Kelurahan Sedau",
   "ref_no": null,
   "region": "south",
   "id": "s21"
 },
 {
   "name_indo": "VIHARA NACA HANG KIUNG (THAI CI SAN)",
   "name_hanzi": "哪吒行宮(鹽町肚-太子山)",
   "name_pinyin": "Na Zha Hang Gong (Yan Ting Du-Tai Zi Shan)",
   "neighbourhood": "KALIASIN DALAM",
   "gps_lat": 0.8622222222222222,
   "gps_lon": 108.94916666666667,
   "address": "Jl. Kaliasin Dalam Gg. Kelenteng Naca, RT 26/05 Kelurahan Sedau",
   "ref_no": null,
   "region": "south",
   "id": "s22"
 },
 {
   "name_indo": "CETIYA SAM KON MIAU",
   "name_hanzi": "三官廟(鹽町肚)",
   "name_pinyin": "San Guan Miao (Yan Ting Du)",
   "neighbourhood": "KALIASIN DALAM",
   "gps_lat": 0.855,
   "gps_lon": 108.95444444444445,
   "address": "Jl. Kaliasin Dalam Gg. Durian, RT 26/05 Kelurahan Sedau",
   "ref_no": null,
   "region": "south",
   "id": "s23"
 },
 {
   "name_indo": "VIHARA THIAN LIN FAB KIUNG",
   "name_hanzi": "天靈法宮(鹽町肚)",
   "name_pinyin": "Tian Ling Fa Gong (Yan Ting Du)",
   "neighbourhood": "(JONG THAI PAK KUNG) KALIASIN DALAM",
   "gps_lat": 0.8577777777777778,
   "gps_lon": 108.94777777777779,
   "address": "Jl. Kaliasin Dalam, RT 26/05 Kelurahan Sedau",
   "ref_no": null,
   "region": "south",
   "id": "s24"
 },
 {
   "name_indo": "VIHARA SI FONG PAK KUNG",
   "name_hanzi": "西方伯公廟(鹽町肚)",
   "name_pinyin": "Xi Fang Bo Gong Miao (Yan Ting Du)",
   "neighbourhood": "KALIASIN DALAM",
   "gps_lat": 0.8572222222222222,
   "gps_lon": 108.94777777777779,
   "address": "Jl. Kaliasin Dalam, RT 26/05 Kelurahan Sedau",
   "ref_no": null,
   "region": "south",
   "id": "s25"
 },
 {
   "name_indo": "VIHARA FUK NUNG KIUNG / SUI KHEU PAK KUNG",
   "name_hanzi": "福農宮/水口伯公(鹽町肚)",
   "name_pinyin": "Fu Nong Gong / Shui Kou Bo Gong (Yan Ting Du)",
   "neighbourhood": "KALIASIN DALAM",
   "gps_lat": 0.855,
   "gps_lon": 108.94611111111111,
   "address": "Jl. Kaliasin Dalam, RT 27/05 Kelurahan Sedau",
   "ref_no": null,
   "region": "south",
   "id": "s26"
 },
 {
   "name_indo": "CETIYA FAB MIN KIUNG",
   "name_hanzi": "法民宮(鹽町肚)",
   "name_pinyin": "Fa Min Gong (Yan Ting Du)",
   "neighbourhood": "KALIASIN DALAM",
   "gps_lat": 0.8533333333333333,
   "gps_lon": 108.94583333333334,
   "address": "Jl. Kaliasin Dalam, RT 27/05 Kelurahan Sedau",
   "ref_no": null,
   "region": "south",
   "id": "s27"
 },
 {
   "name_indo": "VIHARA KON JIM MIAU",
   "name_hanzi": "觀音廟(鹽町肚)",
   "name_pinyin": "Guan Yin Miao (Yan Ting Du)",
   "neighbourhood": "KALIASIN DALAM",
   "gps_lat": 0.8477777777777779,
   "gps_lon": 108.9575,
   "address": "Jl. Kaliasin Dalam Gg. Sip Si Sha Thon, RT 27/05 Kelurahan Sedau",
   "ref_no": null,
   "region": "south",
   "id": "s28"
 },
 {
   "name_indo": "CETIYA SAM CHIN KIUNG",
   "name_hanzi": "三清宮(鹽町肚)",
   "name_pinyin": "San Qing Gong (Yan Ting Du)",
   "neighbourhood": "KALIASIN DALAM",
   "gps_lat": 0.8480555555555556,
   "gps_lon": 108.94500000000001,
   "address": "Jl. Kaliasin Dalam Gg. Cetya, RT 28/05 Kelurahan Sedau",
   "ref_no": null,
   "region": "south",
   "id": "s29"
 },
 {
   "name_indo": "CETIYA FUK HIN THONG",
   "name_hanzi": "福興堂(鹽町肚)",
   "name_pinyin": "Fu Xing Tang (Yan Ting Du)",
   "neighbourhood": "KALIASIN DALAM",
   "gps_lat": 0.8416666666666667,
   "gps_lon": 108.95166666666667,
   "address": "Jl. Kaliasin Dalam, RT 29/05 Kelurahan Sedau",
   "ref_no": null,
   "region": "south",
   "id": "s30"
 },
 {
   "name_indo": "CETIYA HIAN BONG MIAU",
   "name_hanzi": "玄黄廟(鹽町肚-港尾)",
   "name_pinyin": "Xian Huang Miao (Yan Ting Du-Gang Wei)",
   "neighbourhood": "KONGMUI - KALIASIN DALAM",
   "gps_lat": 0.8377777777777778,
   "gps_lon": 108.95333333333333,
   "address": "Jl. Kong Mui Kaliasin Dalam Gg. CHJ, RT 29/05 Kelurahan Sedau",
   "ref_no": null,
   "region": "south",
   "id": "s31"
 },
 {
   "name_indo": "CETIYA KHIAN NYIAN KIUNG",
   "name_hanzi": "乾元宮(鹽町肚-港尾)",
   "name_pinyin": "Qian Yuan Gong (Yan Ting Du-Gang Wei)",
   "neighbourhood": "KONGMUI - KALIASIN DALAM",
   "gps_lat": 0.8327777777777777,
   "gps_lon": 108.95055555555555,
   "address": "Jl. Kong Mui Kaliasin Dalam, RT 29/05 Kelurahan Sedau",
   "ref_no": null,
   "region": "south",
   "id": "s32"
 },
 {
   "name_indo": "VIHARA KON TI KIUNG",
   "name_hanzi": "關帝宮(鹽町肚-港尾)",
   "name_pinyin": "Guan Di Gong (Yan Ting Du-Gang Wei)",
   "neighbourhood": "KONGMUI - KALIASIN DALAM",
   "gps_lat": 0.8280555555555555,
   "gps_lon": 108.94805555555556,
   "address": "Jl. Kong Mui Kaliasin Dalam, RT 29/05 Kelurahan Sedau",
   "ref_no": null,
   "region": "south",
   "id": "s33"
 },
 {
   "name_indo": "CETIYA TRIDHARMA BUMI RAYA KONG MUI",
   "name_hanzi": "福德宮/大伯公(鹽町肚-港尾)",
   "name_pinyin": "Fu De Gong / Da Bo Gong (Yan Ting Du-Gang Wei)",
   "neighbourhood": "KONGMUI - KALIASIN DALAM",
   "gps_lat": 0.8211111111111111,
   "gps_lon": 108.94055555555556,
   "address": "Jl. Kong Mui Kaliasin Dalam, RT 29/05 Kelurahan Sedau",
   "ref_no": null,
   "region": "south",
   "id": "s34"
 },
 {
   "name_indo": "CETIYA FUK TET KIUNG",
   "name_hanzi": "福德宮(茅屋肚)",
   "name_pinyin": "Fu De Gong (Mao Wu Du)",
   "neighbourhood": "PADANG PASIR (MIONG BUK TU)",
   "gps_lat": 0.8702777777777778,
   "gps_lon": 108.95222222222222,
   "address": "Jl. Budi Agung (Saliung) Kelurahan Sedau, Pemakaman Abadi Miong Buk Tu",
   "ref_no": null,
   "region": "south",
   "id": "s35"
 },
 {
   "name_indo": "CETIYA THAI PAK KUNG KUNG",
   "name_hanzi": "大伯公壇(茅屋肚)",
   "name_pinyin": "Da Bo Gong Tan (Mao Wu Du)",
   "neighbourhood": "PADANG PASIR (MIONG BUK TU)",
   "gps_lat": 0.8694444444444445,
   "gps_lon": 108.95027777777779,
   "address": "Jl. Budi Agung (Saliung) Gg. Ciu Long, RT 18/04 Kelurahan Sedau",
   "ref_no": null,
   "region": "south",
   "id": "s36"
 },
 {
   "name_indo": "CETIYA PO ON THAN",
   "name_hanzi": "保安壇(茅屋肚)",
   "name_pinyin": "Bao An Tan (Mao Wu Du)",
   "neighbourhood": "PADANG PASIR (MIONG BUK TU)",
   "gps_lat": 0.8736111111111111,
   "gps_lon": 108.95027777777779,
   "address": "Jl. Budi Agung (Saliung), RT 18/04 Kelurahan Sedau",
   "ref_no": null,
   "region": "south",
   "id": "s37"
 },
 {
   "name_indo": "CETIYA PO SAN LO MU",
   "name_hanzi": "寳山老母壇(茅屋肚)",
   "name_pinyin": "Bao Shan Lao Mu Tan (Mao Wu Du)",
   "neighbourhood": "PADANG PASIR (MIONG BUK TU)",
   "gps_lat": 0.8686111111111111,
   "gps_lon": 108.95222222222222,
   "address": "Jl. Budi Agung (Saliung), RT 18/04 Kelurahan Sedau",
   "ref_no": null,
   "region": "south",
   "id": "s38"
 },
 {
   "name_indo": "VIHARA THIAN HEU KIUNG / CHIAP THIAN KIUNG",
   "name_hanzi": "天后宮/協天宮(沙壟)",
   "name_pinyin": "Tian Hou Gong / Xie Tian Gong (Sha Long)",
   "neighbourhood": "PADANG PASIR (SALIUNG)",
   "gps_lat": 0.8775000000000001,
   "gps_lon": 108.94972222222222,
   "address": "Jl. Raya Padang Pasir (Saliung), RT 17/04 Kelurahan Sedau",
   "ref_no": null,
   "region": "south",
   "id": "s39"
 },
 {
   "name_indo": "VIHARA TRIDHARMA SETYA BUMI RAYA",
   "name_hanzi": "大伯公公廟(沙壟)",
   "name_pinyin": "Da Bo Gong Gong Miao (Sha Long)",
   "neighbourhood": "PADANG PASIR (SALIUNG)",
   "gps_lat": 0.8783333333333334,
   "gps_lon": 108.95083333333334,
   "address": "Jl. Raya Padang Pasir (Saliung), RT 17/04 Kelurahan Sedau",
   "ref_no": null,
   "region": "south",
   "id": "s40"
 },
 {
   "name_indo": "VIHARA KHIAN TET KIUNG",
   "name_hanzi": "乾德宮(沙壟)",
   "name_pinyin": "Qian De Gong (Sha Long)",
   "neighbourhood": "PADANG PASIR (SALIUNG)",
   "gps_lat": 0.8883333333333333,
   "gps_lon": 108.95944444444444,
   "address": "Jl. Raya Padang Pasir (Saliung), RT 08/02 Kelurahan Sedau",
   "ref_no": null,
   "region": "south",
   "id": "s41"
 },
 {
   "name_indo": "VIHARA THAI PAK KUNG",
   "name_hanzi": "大伯公廟(沙壟)",
   "name_pinyin": "Da Bo Gong Miao (Sha Long_",
   "neighbourhood": "PADANG PASIR (SALIUNG)",
   "gps_lat": 0.8844444444444444,
   "gps_lon": 108.95583333333333,
   "address": "Jl. Raya Padang Pasir (Saliung), RT 10/02 Kelurahan Sedau",
   "ref_no": null,
   "region": "south",
   "id": "s42"
 },
 {
   "name_indo": "CETIYA THI CU PAK KUNG",
   "name_hanzi": "地主公壇(沙壟-監獄)",
   "name_pinyin": "Di Zhu Bo Gong Tan (Sha Long-Jian Yu)",
   "neighbourhood": "(LEMBAGA PEMASYARAKATAN)",
   "gps_lat": 0.8833333333333333,
   "gps_lon": 108.95666666666666,
   "address": "Jl. Raya Padang Pasir (Saliung), RT 10/02 Kelurahan Sedau",
   "ref_no": null,
   "region": "south",
   "id": "s43"
 },
 {
   "name_indo": "VIHARA DHARMA BUDDHA MAITREYA",
   "name_hanzi": "彌勒大道仁中佛堂(沙壟)",
   "name_pinyin": "Mi Le Da Dao Ren Zhong Fo Tang (Sha Long)",
   "neighbourhood": "PADANG PASIR (SALIUNG)",
   "gps_lat": 0.8844444444444444,
   "gps_lon": 108.95444444444445,
   "address": "Jl. Raya Padang Pasir (Saliung), RT 10/02 Kelurahan Sedau",
   "ref_no": null,
   "region": "south",
   "id": "s44"
 },
 {
   "name_indo": "VIHARA THI CU KUNG (KIM LIUNG PAK KUNG)",
   "name_hanzi": "地主公廟/金龍伯公(沙壟)",
   "name_pinyin": "Di Zhu Gong Miao / Jin Long Bo Bong (Sha Long)",
   "neighbourhood": "PADANG PASIR (SALIUNG)",
   "gps_lat": 0.8805555555555555,
   "gps_lon": 108.95444444444445,
   "address": "Jl. Laksitarda (Saliung), RT 16/04 Kelurahan Sedau",
   "ref_no": null,
   "region": "south",
   "id": "s45"
 },
 {
   "name_indo": "VIHARA FA NGOK KIUNG",
   "name_hanzi": "華嶽宮(沙壟)",
   "name_pinyin": "Hue Yue Gong (Sha Long)",
   "neighbourhood": "PADANG PASIR (SALIUNG)",
   "gps_lat": 0.8775000000000001,
   "gps_lon": 108.95611111111111,
   "address": "Jl. Laksitarda (Saliung), RT 16/04 Kelurahan Sedau",
   "ref_no": null,
   "region": "south",
   "id": "s46"
 },
 {
   "name_indo": "VIHARA CAKRAWALA DHARMA SINGKAWANG",
   "name_hanzi": "誠德佛堂(沙壟)",
   "name_pinyin": "Cheng De Fo Tang (Sha Long)",
   "neighbourhood": "PADANG PASIR (SALIUNG)",
   "gps_lat": 0.8816666666666667,
   "gps_lon": 108.95416666666667,
   "address": "Jl. Latsitarda (Saliung), RT 16/04 Kelurahan Sedau",
   "ref_no": null,
   "region": "south",
   "id": "s47"
 },
 {
   "name_indo": "VIHARA KHOI SAN THI CU PAK KUNG",
   "name_hanzi": "開山地主大伯公廟(高杯山)",
   "name_pinyin": "Kai Shan Di Zhu Da Bo Gong Miao (Gao Bei Shan)",
   "neighbourhood": "KOPISAN",
   "gps_lat": 0.8672222222222222,
   "gps_lon": 108.96305555555556,
   "address": "Jl. Tanjung Batu Dalam, RT 14/03 Kelurahan Sedau",
   "ref_no": null,
   "region": "south",
   "id": "s48"
 },
 {
   "name_indo": "CETIYA FAB THO CIN NYIN",
   "name_hanzi": "法道真人壇(高杯山)",
   "name_pinyin": "Fa Dao Zhen Ren Tan (Gao Bei Shan)",
   "neighbourhood": "KOPISAN",
   "gps_lat": 0.8669444444444445,
   "gps_lon": 108.9625,
   "address": "Jl. Tanjung Batu Dalam, RT 14/03 Kelurahan Sedau",
   "ref_no": null,
   "region": "south",
   "id": "s49"
 },
 {
   "name_indo": "CETIYA KIU THIAN HIAN NG CUN SHIN",
   "name_hanzi": "九天玄女尊神壇(高杯山)",
   "name_pinyin": "Jiu Tian Xian Nu Zun Shen Tan (Gao Bei Shan)",
   "neighbourhood": "KOPISAN",
   "gps_lat": 0.8627777777777778,
   "gps_lon": 108.96833333333333,
   "address": "Jl. Tanjung Batu Dalam (Kopisan), RT 15/03 Kelurahan Sedau",
   "ref_no": null,
   "region": "south",
   "id": "s50"
 },
 {
   "name_indo": "CETIYA JIN FUK KUI THONG",
   "name_hanzi": "引福歸堂(高杯山)",
   "name_pinyin": "Yin Fu Gui Tang (Gao Bei Shan)",
   "neighbourhood": "KOPISAN",
   "gps_lat": 0.8627777777777778,
   "gps_lon": 108.97,
   "address": "Jl. Tanjung Batu Dalam (Kopisan) Gg. Bugis, RT 15/03 Kelurahan Sedau",
   "ref_no": null,
   "region": "south",
   "id": "s51"
 },
 {
   "name_indo": "VIHARA BUMI RAYA THAI PAK KUNG",
   "name_hanzi": "大伯公廟(高杯山)",
   "name_pinyin": "Da Bo Gong Miao (Gao Bei Shan)",
   "neighbourhood": "KOPISAN",
   "gps_lat": 0.8730555555555556,
   "gps_lon": 108.96611111111112,
   "address": "Jl. Tanjung Batu Dalam, RT 11/03 Kelurahan Sedau",
   "ref_no": null,
   "region": "south",
   "id": "s52"
 },
 {
   "name_indo": "VIHARA CUNG NGO THONG",
   "name_hanzi": "忠峩堂(高杯山)",
   "name_pinyin": "Zhong E Tang (Gao Bei Shan)",
   "neighbourhood": "KOPISAN",
   "gps_lat": 0.8738888888888889,
   "gps_lon": 108.96583333333334,
   "address": "Jl. Tanjung Batu Dalam (Kopisan), RT 11/03 Kelurahan Sedau",
   "ref_no": null,
   "region": "south",
   "id": "s53"
 },
 {
   "name_indo": "CETIYA THAI PAK KUNG KUNG",
   "name_hanzi": "大伯公公壇(高杯山)",
   "name_pinyin": "Da Bo Gong Gong Tan (Gao Bei Shan)",
   "neighbourhood": "KOPISAN",
   "gps_lat": 0.8766666666666667,
   "gps_lon": 108.97444444444444,
   "address": "Jl. Suka Ramai (Kopisan), RT 12/03 Kelurahan Sedau",
   "ref_no": null,
   "region": "south",
   "id": "s54"
 },
 {
   "name_indo": "CETIYA KHOI SAN THI CU PAK KUNG",
   "name_hanzi": "開山地主大伯公壇(高杯山)",
   "name_pinyin": "Kai Shan Di Zhu Da Bo Gong Miao (Gao Bei Shan)",
   "neighbourhood": "KOPISAN",
   "gps_lat": 0.8727777777777778,
   "gps_lon": 108.96916666666667,
   "address": "Jl. Suka Maju (Kopisan), RT 12/03 Kelurahan Sedau",
   "ref_no": null,
   "region": "south",
   "id": "s55"
 },
 {
   "name_indo": "VIHARA FAB LIN KIUNG",
   "name_hanzi": "法靈宮(高杯山)",
   "name_pinyin": "Fa Ling Gong (Gao Bei Shan)",
   "neighbourhood": "KOPISAN",
   "gps_lat": 0.8830555555555556,
   "gps_lon": 108.96472222222222,
   "address": "Jl. Tanjung Batu Dalam (Kopisan), RT 04/01 Kelurahan Sedau",
   "ref_no": null,
   "region": "south",
   "id": "s56"
 },
 {
   "name_indo": "CETIYA LU SAN PAK KUNG",
   "name_hanzi": "廬山廟(高杯山)",
   "name_pinyin": "Lu Shan Miao (Gao Bei Shan)",
   "neighbourhood": "KOPISAN",
   "gps_lat": 0.885,
   "gps_lon": 108.9588888888889,
   "address": "Jl. Sosial Gg. Sosial 4, RT 03/01 Kelurahan Sedau",
   "ref_no": null,
   "region": "south",
   "id": "s57"
 },
 {
   "name_indo": "CETIYA FA NGOK KIUNG",
   "name_hanzi": "華嶽宮(高杯山)",
   "name_pinyin": "Hua Yue Gong (Gao Bei Shan)",
   "neighbourhood": "KOPISAN",
   "gps_lat": 0.8833333333333333,
   "gps_lon": 108.96027777777778,
   "address": "Jl. Sosial Gg. Sosial 4, RT 03/01 Kelurahan Sedau",
   "ref_no": null,
   "region": "south",
   "id": "s58"
 },
 {
   "name_indo": "VIHARA KUANG YAO FO DANG",
   "name_hanzi": "廣耀佛堂(高杯山)",
   "name_pinyin": "Guang Yao Fo Tang (Gao Bei Shan)",
   "neighbourhood": "KOPISAN",
   "gps_lat": 0.8861111111111111,
   "gps_lon": 108.96055555555556,
   "address": "Jl. Sosial Gg. Sosial 4, RT 03/01 Kelurahan Sedau",
   "ref_no": null,
   "region": "south",
   "id": "s59"
 },
 {
   "name_indo": "VIHARA CHIANG SAN MIAU",
   "name_hanzi": "青山廟(高杯山)",
   "name_pinyin": "Qing Shan Miao (Gao Bei Shan)",
   "neighbourhood": "KOPISAN",
   "gps_lat": 0.8858333333333333,
   "gps_lon": 108.95972222222223,
   "address": "Jl. Sosial Gg. Sosial 3, RT 03/01 Kelurahan Sedau",
   "ref_no": null,
   "region": "south",
   "id": "s60"
 },
 {
   "name_indo": "VIHARA FAB SHI KUNG KUNG",
   "name_hanzi": "法師公公廟(高杯山)",
   "name_pinyin": "Fa Shi Gong Gong Miao (Gao Bei Shan)",
   "neighbourhood": "KOPISAN",
   "gps_lat": 0.8877777777777778,
   "gps_lon": 108.96083333333334,
   "address": "Jl. Sosial (Karang Intan), RT 03/01 Kelurahan Sedau",
   "ref_no": null,
   "region": "south",
   "id": "s61"
 },
 {
   "name_indo": "VIHARA THAI JIM THAI JONG SEN KIUN",
   "name_hanzi": "日月宮/太陰太陽星軍 (石角)",
   "name_pinyin": "Tai Yin Tai Yang Xing Jun / Ri Yue Gong (Shi Jiao)",
   "neighbourhood": "TANJUNG BATU (SAKKOK)",
   "gps_lat": 0.8891666666666667,
   "gps_lon": 108.96166666666667,
   "address": "Jl. Karang Intan Gg. Kopisan, RT 07/02 Kelurahan Sedau",
   "ref_no": 14,
   "region": "south",
   "id": "s62"
 },
 {
   "name_indo": "VIHARA SUI KHEU PAK KUNG",
   "name_hanzi": "水口伯公廟(石角)",
   "name_pinyin": "Shui Kou Bo Gong Miao (Shi Jiao)",
   "neighbourhood": "TANJUNG BATU (SAKKOK)",
   "gps_lat": 0.8911111111111111,
   "gps_lon": 108.96111111111111,
   "address": "Jl. Raya Tanjung Batu Gg. Sejati, RT 07/02 Kelurahan Sedau",
   "ref_no": null,
   "region": "south",
   "id": "s63"
 },
 {
   "name_indo": "VIHARA THAI CU SHIN TI",
   "name_hanzi": "太祖聖帝宮(石角)",
   "name_pinyin": "Tai Zu Sheng Di Gong (Shi Jiao)",
   "neighbourhood": "TANJUNG BATU (SAKKOK)",
   "gps_lat": 0.8908333333333333,
   "gps_lon": 108.96333333333334,
   "address": "Jl. Raya Tanjung Batu Gg. Daya, RT 01/01 Kelurahan Sedau",
   "ref_no": 23,
   "region": "south",
   "id": "s64"
 },
 {
   "name_indo": "VIHARA SAM THIAN THAI CI",
   "name_hanzi": "三天太子廟(石角)",
   "name_pinyin": "San Tian Tai Zi Miao (Shi Jiao)",
   "neighbourhood": "TANJUNG BATU (SAKKOK)",
   "gps_lat": 0.8908333333333333,
   "gps_lon": 108.96305555555556,
   "address": "Jl. Raya Tanjung Batu Gg. Daya, RT 01/01 Kelurahan Sedau",
   "ref_no": 24,
   "region": "south",
   "id": "s65"
 },
 {
   "name_indo": "VIHARA TRIDHARMA BUMI RAYA",
   "name_hanzi": "大伯公廟(石角)",
   "name_pinyin": "Da Bo Gong Miao (Shi Jiao)",
   "neighbourhood": "TANJUNG BATU (SAKKOK)",
   "gps_lat": 0.8916666666666666,
   "gps_lon": 108.96305555555556,
   "address": "Jl. Tanjung Batu Harapan, RT 04/01 Kelurahan Sedau",
   "ref_no": null,
   "region": "south",
   "id": "s66"
 },
 {
   "name_indo": "VIHARA SURGA NERAKA / SAN THONG",
   "name_hanzi": "恕德堂(三吧叻-霸狮山)",
   "name_pinyin": "Shu De Tang (San Ba Le-Ba Shi Shan)",
   "neighbourhood": "SEMPALIT-GUNUNG PASI",
   "gps_lat": 0.8397222222222223,
   "gps_lon": 108.98805555555556,
   "address": "Jl. Sagatani Simajat Gg. Pasqua, RT 23/05 Kelurahan Sijangkung",
   "ref_no": 7,
   "region": "south",
   "id": "s67"
 },
 {
   "name_indo": "CETIYA FA SAN KIUNG",
   "name_hanzi": "華山宮(三吧叻-霸狮山)",
   "name_pinyin": "Hua Shan Gong (San Ba Le-Ba Shi Shan)",
   "neighbourhood": "SEMPALIT-GUNUNG PASI",
   "gps_lat": 0.8333333333333334,
   "gps_lon": 108.98833333333333,
   "address": "Jl. Sagatani Simajat Gg. Pasqua, RT 23/05 Kelurahan Sijangkung",
   "ref_no": null,
   "region": "south",
   "id": "s68"
 },
 {
   "name_indo": "VIHARA CAU TET FUT THONG",
   "name_hanzi": "昭德佛堂(三吧叻)",
   "name_pinyin": "Zhao De Fo Tang (San Ba Le)",
   "neighbourhood": "SEMPALIT",
   "gps_lat": 0.8333333333333334,
   "gps_lon": 108.98138888888889,
   "address": "Jl. Sagatani Simajat Gg. Pasqua, RT 23/05 Kelurahan Sijangkung",
   "ref_no": null,
   "region": "south",
   "id": "s69"
 },
 {
   "name_indo": "VIHARA FUK TET FA NGOK KIUNG",
   "name_hanzi": "福德华岳宮(三吧叻)",
   "name_pinyin": "Fu De Hua Yue Gong (San Ba Le)",
   "neighbourhood": "SEMPALIT",
   "gps_lat": 0.8333333333333334,
   "gps_lon": 108.98138888888889,
   "address": "Jl. Sagatani Simajat, RT 23/05 Kelurahan Sijangkung",
   "ref_no": null,
   "region": "south",
   "id": "s70"
 },
 {
   "name_indo": "VIHARA SHUI KHEU PAK KUNG",
   "name_hanzi": "水口伯公廟(三吧叻)",
   "name_pinyin": "Shui Kou Bo Gong Miao (San Ba Le)",
   "neighbourhood": "SEMPALIT",
   "gps_lat": 0.8352777777777778,
   "gps_lon": 108.97888888888889,
   "address": "Jl. Sagatani Simajat, RT 22/05 Kelurahan Sijangkung",
   "ref_no": null,
   "region": "south",
   "id": "s71"
 },
 {
   "name_indo": "CETIYA LIN SAN NG FUK THAN",
   "name_hanzi": "靈山五福壇(巴古喃)",
   "name_pinyin": "Ling Shan Wu Fu Tan (Ba Gu Nan)",
   "neighbourhood": "PAKUNAM",
   "gps_lat": 0.8475,
   "gps_lon": 108.97444444444444,
   "address": "Jl. Bougenville, RT 21/04 Kelurahan Sijangkung",
   "ref_no": null,
   "region": "south",
   "id": "s72"
 },
 {
   "name_indo": "VIHARA HIAN THIAN KIUNG",
   "name_hanzi": "玄天宮(巴古喃)",
   "name_pinyin": "Xian Tian Gong (Ba Gu Nan)",
   "neighbourhood": "PAKUNAM",
   "gps_lat": 0.8513888888888889,
   "gps_lon": 108.97333333333333,
   "address": "Jl. Sagatani Pakunam Gg. Pepaya, RT 19/04 Kelurahan Sijangkung",
   "ref_no": null,
   "region": "south",
   "id": "s73"
 },
 {
   "name_indo": "VIHARA SAK BONG MIAU / SAK KU THAI BONG",
   "name_hanzi": "石王廟/石古大王(巴古喃)",
   "name_pinyin": "Shi Wang Miao / Shi Gu Da Wang (Ba Gu Nan)",
   "neighbourhood": "PAKUNAM",
   "gps_lat": 0.8583333333333333,
   "gps_lon": 108.98472222222222,
   "address": "Jl. Raya Sagatani, Pakunam, RT 10/02 Kelurahan Sijangkung",
   "ref_no": 9,
   "region": "south",
   "id": "s74"
 },
 {
   "name_indo": "CETIYA NYI BU SIAN SHI",
   "name_hanzi": "二武仙師壇(新喃)",
   "name_pinyin": "Er Wu Xian Shi Tan (Xin Nan)",
   "neighbourhood": "SINNAM",
   "gps_lat": 0.8627777777777778,
   "gps_lon": 108.98805555555556,
   "address": "Jl. Raya Sagatani Gg. Teratai Baru, Sinnam, RT 10/02 Kelurahan Sijangkung",
   "ref_no": null,
   "region": "south",
   "id": "s75"
 },
 {
   "name_indo": "CETIYA SAK BONG CHIAN SOI",
   "name_hanzi": "石王千歲壇(新喃)",
   "name_pinyin": "Shi Wang Qian Sui Tan (Xin Nan)",
   "neighbourhood": "SINNAM",
   "gps_lat": 0.8616666666666667,
   "gps_lon": 108.99027777777778,
   "address": "Jl. Raya Sagatani, Sinnam, RT 14/03 Kelurahan Sijangkung",
   "ref_no": null,
   "region": "south",
   "id": "s76"
 },
 {
   "name_indo": "VIHARA AMBAWANA ARAMA",
   "name_hanzi": "芒林寺(新喃)",
   "name_pinyin": "Mang Lin Si (Xin Nan)",
   "neighbourhood": "SINNAM",
   "gps_lat": 0.8608333333333333,
   "gps_lon": 108.99555555555555,
   "address": "Jl. Raya Sagatani Gg. Tower, Sinnam, RT 13/03 Kelurahan Sijangkung",
   "ref_no": null,
   "region": "south",
   "id": "s77"
 },
 {
   "name_indo": "CETIYA LIUNG SAN THAN",
   "name_hanzi": "龍山壇(新喃)",
   "name_pinyin": "Long Shan Tan (Xin Nan)",
   "neighbourhood": "SINNAM",
   "gps_lat": 0.8647222222222222,
   "gps_lon": 108.995,
   "address": "Jl. Raya Sagatani Gg. Tower, Sinnam, RT 13/03 Kelurahan Sijangkung",
   "ref_no": null,
   "region": "south",
   "id": "s78"
 },
 {
   "name_indo": "VIHARA MAITREYA KARUNA",
   "name_hanzi": "光浩堂(新喃)",
   "name_pinyin": "Guang Hao Tang (Xin Nan)",
   "neighbourhood": "SINNAM",
   "gps_lat": 0.8730555555555556,
   "gps_lon": 108.99138888888889,
   "address": "Jl. Sagatani Gare, Sinnam, RT 12/03 Kelurahan Sijangkung",
   "ref_no": null,
   "region": "south",
   "id": "s79"
 },
 {
   "name_indo": "VIHARA DHARMA BUDDHA CIKUNG",
   "name_hanzi": "濟公活佛堂(新喃)",
   "name_pinyin": "Ji Gong Fa Fo Tang (Xin Nan)",
   "neighbourhood": "SINNAM",
   "gps_lat": 0.8727777777777778,
   "gps_lon": 108.99055555555556,
   "address": "Jl. Sagatani Gare, Sinnam, RT 08/02 Kelurahan Sijangkung",
   "ref_no": 8,
   "region": "south",
   "id": "s80"
 },
 {
   "name_indo": "VIHARA FA CHIN KIUNG",
   "name_hanzi": "華清宮(新喃)",
   "name_pinyin": "Hua Qing Gong (Xin Nan)",
   "neighbourhood": "SINNAM",
   "gps_lat": 0.8686111111111111,
   "gps_lon": 108.99638888888889,
   "address": "Jl. Raya Sagatani Gg. Padi, RT 14/03 Kelurahan Sijangkung",
   "ref_no": null,
   "region": "south",
   "id": "s81"
 },
 {
   "name_indo": "VIHARA VIMALA CHANDA ARAMA",
   "name_hanzi": "凈愿寺(新喃)",
   "name_pinyin": "Jing Yuan Si (Xin Nan)",
   "neighbourhood": "SINNAM",
   "gps_lat": 0.8780555555555556,
   "gps_lon": 108.99083333333333,
   "address": "Jl. Sagatani Gg. Anugerah No.1, Sinnam, RT 08/02 Kelurahan Sijangkung",
   "ref_no": 43,
   "region": "south",
   "id": "s82"
 },
 {
   "name_indo": "VIHARA TRIDHARMA BUMI RAYA",
   "name_hanzi": "大伯公廟(新喃)",
   "name_pinyin": "Da Bo Gong Miao (Xin Nan)",
   "neighbourhood": "SINNAM",
   "gps_lat": 0.8763888888888889,
   "gps_lon": 108.99083333333333,
   "address": "Jl. Sagatani Gare, Sinnam, RT 08/02 Kelurahan Sijangkung",
   "ref_no": null,
   "region": "south",
   "id": "s83"
 },
 {
   "name_indo": "VIHARA SAM BONG MIAU / BONG JA",
   "name_hanzi": "三王廟/王爺(新喃)",
   "name_pinyin": "San Wang Miao / Wang Ye (Xin Nan)",
   "neighbourhood": "SINNAM",
   "gps_lat": 0.8775000000000001,
   "gps_lon": 108.99194444444444,
   "address": "Jl. Sagatani Gare, Sinnam, RT 11/03 Kelurahan Sijangkung",
   "ref_no": 44,
   "region": "south",
   "id": "s84"
 },
 {
   "name_indo": "CETIYA KIM KONG MIAU / SI THAI KIM KONG",
   "name_hanzi": "金剛廟/四大金剛(新喃)",
   "name_pinyin": "Jin Gang Miao / Si Da Jin Gang (Xin Nan)",
   "neighbourhood": "SINNAM",
   "gps_lat": 0.8783333333333334,
   "gps_lon": 108.99055555555556,
   "address": "Jl. Sagatani Gare, Sinnam, RT 08/02 Kelurahan Sijangkung",
   "ref_no": null,
   "region": "south",
   "id": "s85"
 },
 {
   "name_indo": "CETIYA FUT MU KIUNG",
   "name_hanzi": "佛母宮(文輝路)",
   "name_pinyin": "Fo Mu Gong (Wen Hui Lu)",
   "neighbourhood": "JALAN BUN FUI",
   "gps_lat": 0.8822222222222222,
   "gps_lon": 108.97888888888889,
   "address": "Jl. Bunfui, RT 06/02 Kelurahan Sijangkung",
   "ref_no": 28,
   "region": "south",
   "id": "s86"
 },
 {
   "name_indo": "VIHARA CHIANG LIUNG MIAU",
   "name_hanzi": "青龙庙(文輝路)",
   "name_pinyin": "Qing Long Miao (Wen Hui Lu)",
   "neighbourhood": "JALAN BUN FUI",
   "gps_lat": 0.9141666666666667,
   "gps_lon": 108.98527777777778,
   "address": "Jl. Bunfui No.047, RT 06/02 Kelurahan Sijangkung",
   "ref_no": 29,
   "region": "south",
   "id": "s87"
 },
 {
   "name_indo": "VIHARA SAM CHIN MIAU",
   "name_hanzi": "三清廟(文輝路)",
   "name_pinyin": "San Qing Miao (Wen Hui Lu)",
   "neighbourhood": "JALAN BUN FUI",
   "gps_lat": 0.8697222222222223,
   "gps_lon": 108.98111111111112,
   "address": "Jl. Bunfui Gg. Sentosa, RT 06/02 Kelurahan Sijangkung",
   "ref_no": 30,
   "region": "south",
   "id": "s88"
 },
 {
   "name_indo": "CETIYA LAI KIM PAK KUNG",
   "name_hanzi": "賴金伯公廟(文輝路)",
   "name_pinyin": "Lai Jin Bo Gong Miao (Wen Hui Lu)",
   "neighbourhood": "JALAN BUN FUI",
   "gps_lat": 0.8822222222222222,
   "gps_lon": 108.98138888888889,
   "address": "Jl. Bunfui, RT 04/02 Kelurahan Sijangkung",
   "ref_no": null,
   "region": "south",
   "id": "s89"
 },
 {
   "name_indo": "VIHARA FUK TET KIUNG / KAI SI PAK KUNG",
   "name_hanzi": "福德宮(學老喃)",
   "name_pinyin": "Fu De Gong (Xue Lao Nan)",
   "neighbourhood": "JALAN BARU (HOKLONAM)",
   "gps_lat": 0.8872222222222222,
   "gps_lon": 108.98861111111111,
   "address": "Jl. Baru, Hoklonam, RT 03/01 Kelurahan Sijangkung",
   "ref_no": null,
   "region": "south",
   "id": "s90"
 },
 {
   "name_indo": "VIHARA NG FU CIONG KIUN",
   "name_hanzi": "五虎將軍壇(學老喃",
   "name_pinyin": "Wu Hu Jiang Jun Tan (Xue Lao Nan)",
   "neighbourhood": "JALAN BARU (HOKLONAM)",
   "gps_lat": 0.8880555555555555,
   "gps_lon": 108.99388888888889,
   "address": "Jl. Baru Gg. Singkong, Hoklonam, RT 03/01 Kelurahan Sijangkung",
   "ref_no": null,
   "region": "south",
   "id": "s91"
 },
 {
   "name_indo": "VIHARA CHIANG LIUNG CIN",
   "name_hanzi": "青龍精廟(學老喃",
   "name_pinyin": "Qing Long Jing Miao (Xue Lao Nan)",
   "neighbourhood": "JALAN BARU (HOKLONAM)",
   "gps_lat": 0.8838888888888888,
   "gps_lon": 108.99666666666667,
   "address": "Jl. Baru, Hoklonam, RT 02/01 Kelurahan Sijangkung",
   "ref_no": null,
   "region": "south",
   "id": "s92"
 },
 {
   "name_indo": "CETIYA FA KONG THAI TI",
   "name_hanzi": "華光大帝壇(馬呀梭吧)",
   "name_pinyin": "Hua Guang Da Di Tan (Ma Ya Suo Ba)",
   "neighbourhood": "MAYASOPA",
   "gps_lat": 0.8994444444444444,
   "gps_lon": 109.12444444444444,
   "address": "Jl. Raya Seluang, RT 03/02 Kelurahan Mayasopa",
   "ref_no": null,
   "region": "east",
   "id": "e0"
 },
 {
   "name_indo": "CETIYA KIU THO NYIAN SAI",
   "name_hanzi": "九道元帥壇(岜加沙哇)",
   "name_pinyin": "Jiu Dao Yuan Shuai Tan (Ba Jia Sha Wa)",
   "neighbourhood": "BAGAK SAHWA",
   "gps_lat": 0.8705555555555556,
   "gps_lon": 109.08694444444444,
   "address": "Jl. Raya Bagak Sahwa, RT 03/01 Kelurahan Bagak Sahwa",
   "ref_no": null,
   "region": "east",
   "id": "e1"
 },
 {
   "name_indo": "CETIYA FA NGOK KIUNG",
   "name_hanzi": "華嶽宮(岜加沙哇)",
   "name_pinyin": "Hua Yue Gong (Ba Jia Sha Wa)",
   "neighbourhood": "BAGAK SAHWA",
   "gps_lat": 0.8708333333333333,
   "gps_lon": 109.08611111111111,
   "address": "Jl. Raya Bagak Sahwa, RT 03/01 Kelurahan Bagak Sahwa",
   "ref_no": null,
   "region": "east",
   "id": "e2"
 },
 {
   "name_indo": "VIHARA THI CU THAI PAK KUNG KUNG",
   "name_hanzi": "地主大伯公公廟(岜加沙哇)",
   "name_pinyin": "Di Zhu Da Bo Gong Gong Miao (Ba Jia Sha Wa)",
   "neighbourhood": "BAGAK SAHWA",
   "gps_lat": 0.8702777777777778,
   "gps_lon": 109.08138888888888,
   "address": "Jl. Raya Bagak Sahwa, RT 03/01 Kelurahan Bagak Sahwa",
   "ref_no": null,
   "region": "east",
   "id": "e3"
 },
 {
   "name_indo": "CETIYA CUNG NYI THONG",
   "name_hanzi": "忠義堂(巴仁丹)",
   "name_pinyin": "Zhong Yi Tang (Ba Ren Dan)",
   "neighbourhood": "PAJINTAN",
   "gps_lat": 0.8813888888888889,
   "gps_lon": 109.03222222222222,
   "address": "Jl. Raya Pajintan, RT 08/03 Kelurahan Pajintan",
   "ref_no": null,
   "region": "east",
   "id": "e4"
 },
 {
   "name_indo": "VIHARA KON JIM THONG",
   "name_hanzi": "觀音堂(巴仁丹)",
   "name_pinyin": "Guan Yin Tang (Ba Ren Dan)",
   "neighbourhood": "PAJINTAN",
   "gps_lat": 0.8819444444444444,
   "gps_lon": 109.02916666666667,
   "address": "Jl. Raya Pajintan, RT 07/03 Kelurahan Pajintan",
   "ref_no": 52,
   "region": "east",
   "id": "e5"
 },
 {
   "name_indo": "VIHARA SUI TET KIUNG",
   "name_hanzi": "水徳宮(福律)",
   "name_pinyin": "Shui De Gong (Fu Lu)",
   "neighbourhood": "KULOR",
   "gps_lat": 0.8825000000000001,
   "gps_lon": 109.02527777777777,
   "address": "Jl. Pasar Kulor, RT 10/04 Kelurahan Pajintan",
   "ref_no": 53,
   "region": "east",
   "id": "e6"
 },
 {
   "name_indo": "VIHARA FAB LIN KIUNG / FAB CHIN KUNG",
   "name_hanzi": "法靈宮/法清公公(福律)",
   "name_pinyin": "Fa Ling Gong / Fa Qing Gong Gong ( Fu Lu)",
   "neighbourhood": "KULOR",
   "gps_lat": 0.8866666666666666,
   "gps_lon": 109.02472222222222,
   "address": "Jl. Raya Kulor Gg. Pak Ikal, RT 14/04 Kelurahan Pajintan",
   "ref_no": null,
   "region": "east",
   "id": "e7"
 },
 {
   "name_indo": "VIHARA TRIDHARMA BUMI RAYA",
   "name_hanzi": "大伯公宮(福律)",
   "name_pinyin": "Da Bo Gong Gong (Fu Lu)",
   "neighbourhood": "KULOR",
   "gps_lat": 0.8875,
   "gps_lon": 109.01805555555555,
   "address": "Jl. Raya Kulor, RT 13/04 Kelurahan Pajintan",
   "ref_no": null,
   "region": "east",
   "id": "e8"
 },
 {
   "name_indo": "CETIYA NG KAU CU KUNG KIUNG",
   "name_hanzi": "五教祖公宮(行尾)",
   "name_pinyin": "Wu Jiao Zu Gong Gong (Hang Wei)",
   "neighbourhood": "HANGMUI",
   "gps_lat": 0.8658333333333333,
   "gps_lon": 109.02055555555556,
   "address": "Jl. Raya Sanggau Kulor Gg. Budi Daya 1, RT 19/06 Kelurahan Pajintan",
   "ref_no": null,
   "region": "east",
   "id": "e9"
 },
 {
   "name_indo": "VIHARA SAM BONG KIUNG",
   "name_hanzi": "三王宮(行尾)",
   "name_pinyin": "San Wang Gong (Hang Wei)",
   "neighbourhood": "HANGMUI",
   "gps_lat": 0.8647222222222222,
   "gps_lon": 109.02583333333334,
   "address": "Jl. Hangmui, RT 18/06 Kelurahan Pajintan",
   "ref_no": null,
   "region": "east",
   "id": "e10"
 },
 {
   "name_indo": "VIHARA FA KONG TI",
   "name_hanzi": "華光帝宮(行尾)",
   "name_pinyin": "Hua Guang Di Gong (Hang Wei)",
   "neighbourhood": "HANGMUI",
   "gps_lat": 0.8686111111111111,
   "gps_lon": 109.02833333333334,
   "address": "Jl. Fa Kong Ti, Hangmui, RT 20/06 Kelurahan Pajintan",
   "ref_no": null,
   "region": "east",
   "id": "e11"
 },
 {
   "name_indo": "VIHARA THIAN SHI KIUNG / SHI KUNG",
   "name_hanzi": "天師宮/師公(行尾)",
   "name_pinyin": "Tian Shi Gong / Shi Gong (Hang Wei)",
   "neighbourhood": "HANGMUI",
   "gps_lat": 0.8605555555555555,
   "gps_lon": 109.03305555555555,
   "address": "Jl. Fa Kong Ti, Hangmui, RT 20/06 Kelurahan Pajintan",
   "ref_no": null,
   "region": "east",
   "id": "e12"
 },
 {
   "name_indo": "CETIYA THIAN FAB NG THAI LIN CIONG",
   "name_hanzi": "天法五大靈將壇(行尾)",
   "name_pinyin": "Tian Fa Wu Da Ling Jiang Tan (Hang Wei)",
   "neighbourhood": "HANGMUI",
   "gps_lat": 0.8755555555555555,
   "gps_lon": 109.02638888888889,
   "address": "Jl. Raya Hangmui, RT 17/06 Kelurahan Pajintan",
   "ref_no": null,
   "region": "east",
   "id": "e13"
 },
 {
   "name_indo": "VIHARA THAI SHIN KIUNG",
   "name_hanzi": "大聖宮(卢万山)",
   "name_pinyin": "Da Sheng Gong (Hang Wei)",
   "neighbourhood": "GUNUNG ROBAN",
   "gps_lat": 0.8877777777777778,
   "gps_lon": 109.01472222222222,
   "address": "Jl. Robansan, RT 13/04 Kelurahan Pajintan",
   "ref_no": null,
   "region": "east",
   "id": "e14"
 },
 {
   "name_indo": "CETIYA SI THAI KIM KONG",
   "name_hanzi": "四大金剛壇(新喃)",
   "name_pinyin": "Si Da Jin Gang Tan (Xin Nan)",
   "neighbourhood": "SINNAM-SANGGAU KULOR",
   "gps_lat": 0.8752777777777778,
   "gps_lon": 108.99361111111111,
   "address": "Jl. Raya Sanggau Kulor Gg. Kuburan, RT 01/01 Kelurahan Sanggau Kulor",
   "ref_no": null,
   "region": "east",
   "id": "e15"
 },
 {
   "name_indo": "CETIYA THAI SONG LO KIUN/PHAK LIAN SHI KUNG",
   "name_hanzi": "太上老君壇 / 白莲师公庙 (上候福律)",
   "name_pinyin": "Tai Shang Lao Jun Tan (Shang Hou Fu Lu)",
   "neighbourhood": "SANGGAU KULOR",
   "gps_lat": 0.875,
   "gps_lon": 108.99583333333334,
   "address": "Jl. Raya Sanggau Kulor, RT 01/01 Kelurahan Sanggau Kulor",
   "ref_no": 45,
   "region": "east",
   "id": "e16"
 },
 {
   "name_indo": "CETIYA THI CU PAK KUNG",
   "name_hanzi": "地主大伯壇/(上候福律)",
   "name_pinyin": "Di Zhu Da Bo Gong Tan (Shang Hou Fu Lu)",
   "neighbourhood": "SANGGAU KULOR",
   "gps_lat": 0.8733333333333334,
   "gps_lon": 108.99444444444444,
   "address": "Jl. Raya Sanggau Kulor Gg. Kuburan, RT 01/01 Kelurahan Sanggau Kulor",
   "ref_no": null,
   "region": "east",
   "id": "e17"
 },
 {
   "name_indo": "CETIYA THAI PAK KUNG",
   "name_hanzi": "大伯公壇(上候福律)",
   "name_pinyin": "Da Bo Gong Tan (Shang Hou Fu Lu)",
   "neighbourhood": "SANGGAU KULOR",
   "gps_lat": 0.8713888888888889,
   "gps_lon": 108.99472222222222,
   "address": "Jl. Raya Sanggau Kulor, RT 01/01 Kelurahan Sanggau Kulor",
   "ref_no": null,
   "region": "east",
   "id": "e18"
 },
 {
   "name_indo": "CETIYA THAI PAK KUNG KUNG",
   "name_hanzi": "大伯公公壇(新路)",
   "name_pinyin": "Da Bo Gong Gong Tan (Xin Lu)",
   "neighbourhood": "JALAN BARU",
   "gps_lat": 0.8805555555555555,
   "gps_lon": 109.00111111111111,
   "address": "Jl. Baru Gg. Karet, RT 03/01 Kelurahan Sanggau Kulor",
   "ref_no": null,
   "region": "east",
   "id": "e19"
 },
 {
   "name_indo": "VIHARA NAN MO FUT MU",
   "name_hanzi": "南無佛母廟(十條港)",
   "name_pinyin": "Nan Mo Fo Mu Miao (Shi Tiao Gang)",
   "neighbourhood": "SEMELAGI KECIL",
   "gps_lat": 0.9916666666666666,
   "gps_lon": 108.99,
   "address": "Jl. H. Bakar, RT 02/01 Kelurahan Semelagi Kecil",
   "ref_no": null,
   "region": "north",
   "id": "n0"
 },
 {
   "name_indo": "VIHARA SAM BU CIONG KIUN",
   "name_hanzi": "三武將軍廟(八條港)",
   "name_pinyin": "San Wu Jiang Jun Miao (Ba Tiao Gang)",
   "neighbourhood": "SETAPUK KECIL",
   "gps_lat": 0.9697222222222223,
   "gps_lon": 109.02333333333333,
   "address": "Jl. Hamid Matali, RT 02/01 Kellurahan Setapuk Kecil",
   "ref_no": null,
   "region": "north",
   "id": "n1"
 },
 {
   "name_indo": "VIHARA KON JIM - NACA - SAMPO KIUNG",
   "name_hanzi": "觀音-哪吒-三宝宮(八條港)",
   "name_pinyin": "Guan Yin-Na Zha-San Bao Gong (Ba Tiao Gang)",
   "neighbourhood": "SETAPUK KECIL",
   "gps_lat": 0.9694444444444444,
   "gps_lon": 109.01583333333333,
   "address": "Jl. Hamid Matali, RT 04/01 Kellurahan Setapuk Kecil",
   "ref_no": null,
   "region": "north",
   "id": "n2"
 },
 {
   "name_indo": "VIHARA THAI PAK KUNG KUNG",
   "name_hanzi": "大伯公公廟(八條港)",
   "name_pinyin": "Da Bo Gong Gong Miao (Ba Tiao Gang)",
   "neighbourhood": "SETAPUK KECIL",
   "gps_lat": 0.9730555555555556,
   "gps_lon": 108.98944444444444,
   "address": "Jl. Hamid Matali, RT 08/03 Kellurahan Setapuk Kecil",
   "ref_no": 22,
   "region": "north",
   "id": "n3"
 },
 {
   "name_indo": "CETIYA THAI PAK KUNG",
   "name_hanzi": "大伯公壇(七條港)",
   "name_pinyin": "Da Bo Gong Miao (Qi Tiao Gang)",
   "neighbourhood": "SETAPUK KECIL",
   "gps_lat": 0.9677777777777777,
   "gps_lon": 108.98666666666666,
   "address": "Jl. Ratu Sepudak, RT 08/03 Kellurahan Setapuk Kecil",
   "ref_no": null,
   "region": "north",
   "id": "n4"
 },
 {
   "name_indo": "CETIYA TRIDHARMA BUMI RAYA",
   "name_hanzi": "神農聖帝廟(六條港)",
   "name_pinyin": "Shen Nong Sheng Di Miao (Liu Tiao Gang)",
   "neighbourhood": "SEI. RASAU",
   "gps_lat": 0.9624999999999999,
   "gps_lon": 108.98722222222223,
   "address": "Jl. Yunus Yakub, RT 02/01 Kelurahan Sei. Rasau",
   "ref_no": null,
   "region": "north",
   "id": "n5"
 },