{"features": [{"geometry": {"coordinates": [108.990081, 0.991719], "type": "Point"}, "properties": {"address": "Jl. H. Bakar, RT 02/01 Kelurahan Semelagi Kecil", "gps_lat": "0.9917194444444444", "gps_lon": "108.99008055555555", "name_hanzi": "\u5357\u7121\u4f5b\u6bcd\u5edf(\u5341\u6761\u6e2f)", "name_indo": "VIHARA NAN MO FUT MU", "name_pinyin": "Nan Mo Fo Mu Miao (Shi Tiao Gang)", "neighbourhood": "SEMELAGI KECIL"}, "type": "Feature"}, {"geometry": {"coordinates": [109.023458, 0.969822], "type": "Point"}, "properties": {"address": "Jl. Hamid Matali, RT 02/01 Kellurahan Setapuk Kecil", "gps_lat": "0.9698222222222223", "gps_lon": "109.02345833333334", "name_hanzi": "\u4e09\u6b66\u5c07\u519b\u5edf(\u516b\u6761\u6e2f)", "name_indo": "VIHARA SAM BU CIONG KIUN", "name_pinyin": "San Wu Jiang Jun Miao (Ba Tiao Gang)", "neighbourhood": "SETAPUK KECIL"}, "type": "Feature"}, {"geometry": {"coordinates": [109.01605, 0.969614], "type": "Point"}, "properties": {"address": "Jl. Hamid Matali, RT 04/01 Kellurahan Setapuk Kecil", "gps_lat": "0.9696138888888889", "gps_lon": "109.01605", "name_hanzi": "\u89c2\u97f3-\u54ea\u5412-\u4e09\u5b9d\u5bae(\u516b\u6761\u6e2f)", "name_indo": "VIHARA KON JIM - NACA - SAMPO KIUNG", "name_pinyin": "Guan Yin-Na Zha-San Bao Gong (Ba Tiao Gang)", "neighbourhood": "SETAPUK KECIL"}, "type": "Feature"}, {"geometry": {"coordinates": [108.989669, 0.973275], "type": "Point"}, "properties": {"address": "Jl. Hamid Matali, RT 08/03 Kellurahan Setapuk Kecil", "gps_lat": "0.973275", "gps_lon": "108.98966944444444", "name_hanzi": "\u5927\u4f2f\u516c\u516c\u5edf(\u516b\u6761\u6e2f)", "name_indo": "VIHARA THAI PAK KUNG KUNG", "name_pinyin": "Da Bo Gong Gong Miao (Ba Tiao Gang)", "neighbourhood": "SETAPUK KECIL"}, "type": "Feature"}, {"geometry": {"coordinates": [108.986886, 0.967817], "type": "Point"}, "properties": {"address": "Jl. Ratu Sepudak, RT 08/03 Kellurahan Setapuk Kecil", "gps_lat": "0.9678166666666667", "gps_lon": "108.98688611111112", "name_hanzi": "\u5927\u4f2f\u516c\u575b(\u4e03\u6761\u6e2f)", "name_indo": "CETIYA THAI PAK KUNG", "name_pinyin": "Da Bo Gong Miao (Qi Tiao Gang)", "neighbourhood": "SETAPUK KECIL"}, "type": "Feature"}, {"geometry": {"coordinates": [108.987364, 0.962536], "type": "Point"}, "properties": {"address": "Jl. Yunus Yakub, RT 02/01 Kelurahan Sei. Rasau", "gps_lat": "0.962536111111111", "gps_lon": "108.9873638888889", "name_hanzi": "\u795e\u8fb2\u5723\u5e1d\u5edf(\u516d\u6761\u6e2f)", "name_indo": "CETIYA TRIDHARMA BUMI RAYA", "name_pinyin": "Shen Nong Sheng Di Miao (Liu Tiao Gang)", "neighbourhood": "SEI. RASAU"}, "type": "Feature"}, {"geometry": {"coordinates": [108.988794, 0.962353], "type": "Point"}, "properties": {"address": "Jl. Yunus Yakub, RT 02/01 Kelurahan Sei. Rasau", "gps_lat": "0.9623527777777777", "gps_lon": "108.98879444444445", "name_hanzi": "\u4e8c\u592a\u5b50\u5edf(\u516d\u6761\u6e2f)", "name_indo": "CETIYA NYI THAI CI", "name_pinyin": "Er Tai Zi Miao (Liu Tiao Gang)", "neighbourhood": "SEI. RASAU"}, "type": "Feature"}, {"geometry": {"coordinates": [108.988736, 0.955806], "type": "Point"}, "properties": {"address": "Jl. Mesjid, RT 09/04 Kelurahan Sei. Bulan", "gps_lat": "0.9558055555555555", "gps_lon": "108.98873611111111", "name_hanzi": "\u795e\u8fb2\u5bae(\u4e94\u6761\u6e2f)", "name_indo": "VIHARA SHIN NUNG KIUNG", "name_pinyin": "Shen Nong Gong (Wu Tiao Gang)", "neighbourhood": "SEI. BULAN"}, "type": "Feature"}, {"geometry": {"coordinates": [109.004939, 0.940394], "type": "Point"}, "properties": {"address": "Jl. Trisula No.40, RT 07/03 Kelurahan Naram", "gps_lat": "0.9403944444444444", "gps_lon": "109.00493888888889", "name_hanzi": "\u5143\u5e05\u5802(\u56db\u6761\u6e2f)", "name_indo": "VIHARA CHAU THAI NYIAN SAI", "name_pinyin": "Yuan Shuai Tang (Si Tiao Gang)", "neighbourhood": "NARAM"}, "type": "Feature"}, {"geometry": {"coordinates": [109.006903, 0.943625], "type": "Point"}, "properties": {"address": "Jl. Sei. Nangka, RT 05/02 Kelurahan Naram", "gps_lat": "0.943625", "gps_lon": "109.00690277777778", "name_hanzi": "\u5927\u4f2f\u516c\u575b(\u56db\u6761\u6e2f)", "name_indo": "VIHARA TRIDHARMA BUMI RAYA", "name_pinyin": "Da Bo Gong Tan (Si Tiao Gang)", "neighbourhood": "NARAM"}, "type": "Feature"}, {"geometry": {"coordinates": [109.004478, 0.943631], "type": "Point"}, "properties": {"address": "Jl. Gunung Kaba' No.25, RT 04/02 Kelurahan Naram", "gps_lat": "0.9436305555555555", "gps_lon": "109.00447777777778", "name_hanzi": "\u4e09\u738b\u5bae(\u56db\u6761\u6e2f)", "name_indo": "CETIYA SAM BONG KIUNG", "name_pinyin": "San Wang Gong (Si Tiao Gang)", "neighbourhood": "NARAM"}, "type": "Feature"}, {"geometry": {"coordinates": [109.005964, 0.946006], "type": "Point"}, "properties": {"address": "Jl. Sei. Nangka Gg. Jeruk, RT 04/02 Kelurahan Naram", "gps_lat": "0.9460055555555555", "gps_lon": "109.00596388888889", "name_hanzi": "\u91d1\u7167\u5bae(\u56db\u6761\u6e2f)", "name_indo": "CETIYA KIM CAU KUNG", "name_pinyin": "Jin Zhao Gong (Si Tiao Gang)", "neighbourhood": "NARAM"}, "type": "Feature"}, {"geometry": {"coordinates": [108.996167, 0.940164], "type": "Point"}, "properties": {"address": "Jl. Semai, 05/04 Kelurahan Sei. Garam Hilir", "gps_lat": "0.9401638888888889", "gps_lon": "108.99616666666667", "name_hanzi": "\u7075\u6cd5\u5802(\u4e09\u6761\u6e2f)", "name_indo": "CETIYA LIN FAB THONG", "name_pinyin": "Ling Fa Tang (San Tiao Gang)", "neighbourhood": "SEI. GARAM HILIR"}, "type": "Feature"}, {"geometry": {"coordinates": [108.982617, 0.932936], "type": "Point"}, "properties": {"address": "Jl. Ratu Sepudak Gg. Sepakat, RT 05/04 Kelurahan Sei. Garam Hilir", "gps_lat": "0.9329361111111111", "gps_lon": "108.98261666666667", "name_hanzi": "\u6797\u6b66\u5c07\u519b\u5edf(\u4e09\u6761\u6e2f)", "name_indo": "VIHARA LIM BU CIONG KIUN", "name_pinyin": "Lin Wu Jiang Jun Miao (San Tiao Gang)", "neighbourhood": "SEI. GARAM HILIR"}, "type": "Feature"}, {"geometry": {"coordinates": [108.979717, 0.931336], "type": "Point"}, "properties": {"address": "Jl. Terminal Induk Gg. Kesehatan, RT 09/04 Kelurahan Sei. Garam Hilir", "gps_lat": "0.931336111111111", "gps_lon": "108.97971666666668", "name_hanzi": "\u5927\u4f2f\u516c\u575b(\u4e09\u6761\u6e2f)", "name_indo": "CETIYA TRIDHARMA PANCA SADDHA", "name_pinyin": "Da Bo Gong Tan (San Tiao Gang)", "neighbourhood": "SEI. GARAM HILIR"}, "type": "Feature"}], "type": "FeatureCollection"}